% (e/n/u-baseline=WGS84,Q=1:fix,2:float,3:sbas,4:dgps,5:single,6:ppp,ns=# of satellites)
%  UTC                   e-baseline(m)  n-baseline(m)  u-baseline(m)   Q  ns   sde(m)   sdn(m)   sdu(m)  sden(m)  sdnu(m)  sdue(m) age(s)  ratio
2025/10/15 16:30:17.000      2351.4093      5869.2085      -804.3894   2   8   1.1416   1.5270   2.8938  -0.1904  -0.8461  -0.9095   1.00    0.0
2025/10/15 16:30:18.000      2351.4087      5869.1751      -804.3432   2   8   0.8453   1.1252   2.1438  -0.2068  -0.5821  -0.6829   1.00    0.0
2025/10/15 16:30:19.000      2351.4153      5869.1948      -804.3770   2   8   0.7016   0.9320   1.7786  -0.1878  -0.4697  -0.5696   0.00    0.0
2025/10/15 16:30:20.000      2351.4168      5869.1937      -804.3924   2   8   0.6127   0.8127   1.5518  -0.1707  -0.4050  -0.4984   0.00    0.0
2025/10/15 16:30:21.000      2351.4168      5869.1983      -804.3995   2   8   0.5508   0.7296   1.3932  -0.1567  -0.3623  -0.4482   0.00    0.0
2025/10/15 16:30:22.000      2351.4200      5869.1849      -804.4285   2   8   0.5045   0.6673   1.2740  -0.1453  -0.3316  -0.4103   1.00    0.0
2025/10/15 16:30:23.000      2351.4233      5869.1884      -804.4563   2   8   0.4681   0.6183   1.1800  -0.1357  -0.3086  -0.3803   1.00    0.0
2025/10/15 16:30:24.000      2351.4147      5869.2040      -804.4218   2   8   0.4386   0.5784   1.1031  -0.1276  -0.2906  -0.3557   1.00    0.0
2025/10/15 16:30:25.000      2351.4086      5869.2397      -804.3963   2   8   0.4140   0.5450   1.0385  -0.1204  -0.2762  -0.3350   0.00    0.0
2025/10/15 16:30:26.000      2351.4064      5869.2636      -804.3707   2   8   0.3931   0.5164   0.9832  -0.1142  -0.2645  -0.3173   0.00    0.0
2025/10/15 16:30:27.000      2351.4085      5869.2436      -804.3715   2   8   0.3750   0.4917   0.9353  -0.1086  -0.2546  -0.3019   1.00    0.0
2025/10/15 16:30:28.000      2351.4057      5869.2434      -804.3537   2   8   0.3592   0.4699   0.8928  -0.1035  -0.2464  -0.2882   0.00    0.0
2025/10/15 16:30:29.000      2351.4076      5869.2469      -804.3780   2   8   0.3452   0.4504   0.8548  -0.0989  -0.2393  -0.2761   0.00    0.0
2025/10/15 16:30:30.000      2351.4155      5869.2656      -804.4252   2   8   0.3327   0.4330   0.8207  -0.0947  -0.2333  -0.2651   0.00    0.0
2025/10/15 16:30:31.000      2351.4178      5869.2714      -804.4579   2   8   0.3214   0.4172   0.7896  -0.0908  -0.2280  -0.2551   0.00    0.0
2025/10/15 16:30:32.000      2351.4228      5869.2552      -804.4932   2   8   0.3112   0.4028   0.7614  -0.0871  -0.2233  -0.2460   1.00    0.0
2025/10/15 16:30:33.000      2351.4297      5869.2496      -804.5373   2   8   0.3019   0.3895   0.7352  -0.0837  -0.2192  -0.2376   0.00    0.0
2025/10/15 16:30:34.000      2351.4363      5869.2523      -804.5785   2   8   0.2933   0.3773   0.7112  -0.0806  -0.2155  -0.2298   1.00    1.1
2025/10/15 16:30:35.000      2351.4279      5869.2627      -804.5746   2   8   0.2854   0.3659   0.6889  -0.0776  -0.2121  -0.2226   1.00    1.2
2025/10/15 16:30:36.000      2351.4227      5869.3203      -804.5949   2   8   0.2781   0.3553   0.6677  -0.0747  -0.2091  -0.2159   0.00    1.2
2025/10/15 16:30:37.000      2351.4174      5869.3493      -804.6010   2   8   0.2714   0.3454   0.6482  -0.0720  -0.2063  -0.2096   1.00    1.0
2025/10/15 16:30:38.000      2351.4156      5869.3546      -804.6018   2   8   0.2650   0.3361   0.6298  -0.0694  -0.2037  -0.2037   1.00    1.0
2025/10/15 16:30:39.000      2351.4111      5869.3489      -804.5843   2   8   0.2591   0.3273   0.6122  -0.0670  -0.2014  -0.1980   0.00    1.2
2025/10/15 16:30:40.000      2351.4072      5869.3586      -804.5844   2   8   0.2535   0.3190   0.5956  -0.0647  -0.1992  -0.1927   0.00    1.0
2025/10/15 16:30:41.000      2351.4006      5869.3497      -804.5821   2   8   0.2483   0.3112   0.5801  -0.0624  -0.1970  -0.1877   1.00    1.6
2025/10/15 16:30:42.000      2351.3957      5869.3491      -804.5726   2   8   0.2434   0.3038   0.5654  -0.0603  -0.1950  -0.1830   1.00    1.2
2025/10/15 16:30:43.000      2351.3935      5869.3427      -804.5737   2   8   0.2387   0.2967   0.5513  -0.0583  -0.1930  -0.1785   1.00    1.2
2025/10/15 16:30:44.000      2351.3877      5869.3455      -804.5664   2   8   0.2343   0.2900   0.5379  -0.0563  -0.1912  -0.1742   1.00    1.0
2025/10/15 16:30:45.000      2351.3790      5869.3689      -804.5575   2   8   0.2301   0.2835   0.5249  -0.0544  -0.1894  -0.1701   0.00    2.8
2025/10/15 16:30:46.000      2351.3734      5869.4001      -804.5855   2   8   0.2261   0.2773   0.5125  -0.0526  -0.1877  -0.1662   0.00    1.5
2025/10/15 16:30:47.000      2351.3690      5869.4251      -804.6132   2   8   0.2223   0.2714   0.5008  -0.0508  -0.1860  -0.1625   1.00    2.8
2025/10/15 16:30:48.000      2351.3555      5869.4622      -804.5969   2   8   0.2187   0.2657   0.4894  -0.0491  -0.1843  -0.1589   0.00    1.5
2025/10/15 16:30:49.000      2351.3471      5869.4736      -804.5887   2   8   0.2152   0.2603   0.4787  -0.0475  -0.1826  -0.1555   1.00    2.8
2025/10/15 16:30:50.000      2351.4446      5869.1163      -804.0163   1   8   0.0046   0.0059   0.0108  -0.0017  -0.0027  -0.0035   0.00    7.1
2025/10/15 16:30:51.000      2351.4450      5869.1174      -804.0184   1   8   0.0048   0.0057   0.0108  -0.0017  -0.0027  -0.0034   0.00    7.2
2025/10/15 16:30:52.000      2351.4477      5869.1139      -804.0246   1   8   0.0049   0.0058   0.0110  -0.0015  -0.0029  -0.0034   1.00    7.5
2025/10/15 16:30:53.000      2351.4447      5869.1166      -804.0158   1   8   0.0042   0.0059   0.0108  -0.0015  -0.0029  -0.0035   0.00    7.7
2025/10/15 16:30:54.000      2351.4432      5869.1199      -804.0130   1   8   0.0044   0.0057   0.0108  -0.0020  -0.0027  -0.0033   0.00    8.1
2025/10/15 16:30:55.000      2351.4456      5869.1159      -804.0226   1   8   0.0040   0.0060   0.0110  -0.0017  -0.0029  -0.0035   1.00    8.5
2025/10/15 16:30:56.000      2351.4457      5869.1182      -804.0237   1   8   0.0046   0.0060   0.0110  -0.0015  -0.0027  -0.0034   1.00    8.9
2025/10/15 16:30:57.000      2351.4466      5869.1168      -804.0205   1   8   0.0045   0.0058   0.0111  -0.0013  -0.0029  -0.0035   1.00    9.1
2025/10/15 16:30:58.000      2351.4464      5869.1208      -804.0177   1   8   0.0037   0.0058   0.0109  -0.0018  -0.0029  -0.0037   1.00    9.3
2025/10/15 16:30:59.000      2351.4446      5869.1217      -804.0144   1   8   0.0044   0.0060   0.0109  -0.0013  -0.0028  -0.0034   0.00    9.3
2025/10/15 16:31:00.000      2351.4570      5869.0999      -804.0136   1   8   0.0048   0.0058   0.0110  -0.0007  -0.0027  -0.0034   1.00    5.9
2025/10/15 16:31:01.000      2351.4553      5869.1039      -804.0091   1   8   0.0043   0.0056   0.0108  -0.0012  -0.0024  -0.0034   0.00    6.0
2025/10/15 16:31:02.000      2351.4551      5869.1008      -804.0182   1   8   0.0045   0.0058   0.0109  -0.0010  -0.0027  -0.0035   1.00    6.0
2025/10/15 16:31:03.000      2351.4645      5869.0960      -804.0327   1   8   0.0034   0.0055   0.0108  -0.0021  -0.0029  -0.0035   0.00    3.5
2025/10/15 16:31:04.000      2351.4648      5869.0964      -804.0374   1   8   0.0047   0.0058   0.0107  -0.0008  -0.0026  -0.0034   0.00    3.5
2025/10/15 16:31:05.000      2351.4646      5869.0950      -804.0367   1   8   0.0037   0.0055   0.0107  -0.0013  -0.0028  -0.0037   0.00    3.6
2025/10/15 16:31:06.000      2351.4647      5869.0935      -804.0374   1   8   0.0042   0.0057   0.0106  -0.0010  -0.0026  -0.0036   0.00    3.7
2025/10/15 16:31:07.000      2351.4661      5869.0907      -804.0441   1   8   0.0042   0.0057   0.0109  -0.0016  -0.0027  -0.0033   1.00    3.7
2025/10/15 16:31:08.000      2351.4674      5869.0916      -804.0385   1   8   0.0050   0.0054   0.0107  -0.0014  -0.0025  -0.0032   0.00    3.8
2025/10/15 16:31:09.000      2351.4684      5869.0881      -804.0438   1   8   0.0044   0.0056   0.0110  -0.0019  -0.0029  -0.0033   1.00    3.9
2025/10/15 16:31:10.000      2351.4674      5869.0907      -804.0465   1   8   0.0044   0.0058   0.0108  -0.0009  -0.0027  -0.0036   1.00    4.0
2025/10/15 16:31:11.000      2351.4656      5869.0921      -804.0366   1   8   0.0046   0.0055   0.0107  -0.0010  -0.0027  -0.0034   0.00    4.0
2025/10/15 16:31:12.000      2351.4664      5869.0918      -804.0400   1   8   0.0042   0.0057   0.0109  -0.0015  -0.0027  -0.0036   1.00    4.1
2025/10/15 16:31:13.000      2351.4681      5869.0910      -804.0339   1   8   0.0038   0.0057   0.0109  -0.0018  -0.0028  -0.0035   1.00    3.0
2025/10/15 16:31:14.000      2351.4682      5869.0918      -804.0243   1   8   0.0047   0.0054   0.0107  -0.0015  -0.0027  -0.0035   0.00    3.0
2025/10/15 16:31:15.000      2351.4688      5869.0929      -804.0274   1   8   0.0044   0.0057   0.0107  -0.0016  -0.0026  -0.0034   0.00    3.0
2025/10/15 16:31:16.000      2351.4683      5869.0930      -804.0311   1   8   0.0046   0.0054   0.0107  -0.0017  -0.0030  -0.0034   0.00    3.1
2025/10/15 16:31:17.000      2351.4723      5869.0899      -804.0357   1   8   0.0045   0.0057   0.0109  -0.0016  -0.0028  -0.0032   1.00    3.1
2025/10/15 16:31:18.000      2351.4693      5869.0912      -804.0259   1   8   0.0042   0.0056   0.0107  -0.0013  -0.0025  -0.0035   0.00    3.1
2025/10/15 16:31:19.000      2351.4731      5869.0889      -804.0331   1   8   0.0045   0.0058   0.0109  -0.0015  -0.0027  -0.0034   1.00    3.1
2025/10/15 16:31:20.000      2351.4708      5869.0855      -804.0317   1   8   0.0036   0.0058   0.0108  -0.0013  -0.0027  -0.0037   1.00    3.1
2025/10/15 16:31:21.000      2351.4684      5869.0895      -804.0332   1   8   0.0044   0.0057   0.0107  -0.0014  -0.0025  -0.0033   0.00    3.2
2025/10/15 16:31:22.000      2351.4689      5869.0881      -804.0371   1   8   0.0041   0.0057   0.0109  -0.0016  -0.0028  -0.0035   1.00    3.2
2025/10/15 16:31:23.000      2351.4680      5869.0874      -804.0303   1   8   0.0036   0.0056   0.0107  -0.0021  -0.0027  -0.0037   0.00    3.2
2025/10/15 16:31:24.000      2351.4665      5869.0897      -804.0334   1   8   0.0035   0.0055   0.0107  -0.0016  -0.0028  -0.0037   0.00    3.2
2025/10/15 16:31:25.000      2351.4689      5869.0908      -804.0372   1   8   0.0041   0.0056   0.0107  -0.0013  -0.0028  -0.0034   0.00    3.3
2025/10/15 16:31:26.000      2351.4672      5869.0897      -804.0347   1   8   0.0043   0.0057   0.0107  -0.0007  -0.0028  -0.0035   0.00    3.3
2025/10/15 16:31:27.000      2351.4671      5869.0887      -804.0381   1   8   0.0052   0.0057   0.0107  -0.0009  -0.0027  -0.0031   0.00    3.3
2025/10/15 16:31:28.000      2351.4689      5869.0866      -804.0421   1   8   0.0047   0.0058   0.0109  -0.0012  -0.0027  -0.0034   1.00    3.4
2025/10/15 16:31:29.000      2351.4676      5869.0908      -804.0206   1   8   0.0038   0.0056   0.0107  -0.0015  -0.0030  -0.0036   0.00    3.0
2025/10/15 16:31:30.000      2351.4680      5869.0868      -804.0243   1   8   0.0043   0.0055   0.0108  -0.0019  -0.0024  -0.0034   0.00    3.1
2025/10/15 16:31:31.000      2351.4708      5869.0836      -804.0237   1   8   0.0044   0.0057   0.0108  -0.0012  -0.0028  -0.0035   1.00    3.1
2025/10/15 16:31:32.000      2351.4709      5869.0858      -804.0253   1   8   0.0045   0.0058   0.0110  -0.0014  -0.0027  -0.0034   1.00    3.1
2025/10/15 16:31:33.000      2351.4701      5869.0872      -804.0190   1   8   0.0043   0.0055   0.0108  -0.0016  -0.0024  -0.0035   0.00    3.1
2025/10/15 16:31:34.000      2351.4713      5869.0907      -804.0193   1   8   0.0037   0.0056   0.0107  -0.0020  -0.0026  -0.0035   0.00    3.1
2025/10/15 16:31:35.000      2351.4724      5869.0866      -804.0260   1   8   0.0043   0.0057   0.0110  -0.0016  -0.0029  -0.0035   1.00    3.2
2025/10/15 16:31:36.000      2351.4715      5869.0918      -804.0274   1   8   0.0044   0.0057   0.0109  -0.0013  -0.0029  -0.0034   1.00    3.2
2025/10/15 16:31:37.000      2351.4721      5869.0902      -804.0285   1   8   0.0042   0.0057   0.0109  -0.0010  -0.0029  -0.0034   1.00    3.2
2025/10/15 16:31:38.000      2351.4713      5869.0931      -804.0190   1   8   0.0042   0.0055   0.0107  -0.0018  -0.0029  -0.0033   0.00    3.2
2025/10/15 16:31:39.000      2351.4701      5869.0916      -804.0212   1   8   0.0048   0.0059   0.0106  -0.0005  -0.0028  -0.0033   0.00    3.2
2025/10/15 16:31:40.000      2351.4708      5869.0930      -804.0198   1   8   0.0043   0.0059   0.0107  -0.0007  -0.0026  -0.0035   0.00    3.3
2025/10/15 16:31:41.000      2351.4711      5869.0906      -804.0223   1   8   0.0039   0.0058   0.0109  -0.0018  -0.0031  -0.0035   1.00    3.3
2025/10/15 16:31:42.000      2351.4733      5869.0909      -804.0286   1   8   0.0044   0.0058   0.0109  -0.0012  -0.0028  -0.0036   1.00    3.3
2025/10/15 16:31:43.000      2351.4712      5869.0926      -804.0199   1   8   0.0052   0.0054   0.0107  -0.0011  -0.0025  -0.0031   0.00    3.3
2025/10/15 16:31:44.000      2351.4727      5869.0907      -804.0285   1   8   0.0041   0.0056   0.0109  -0.0017  -0.0030  -0.0036   1.00    3.3
2025/10/15 16:31:45.000      2351.4720      5869.0887      -804.0260   1   8   0.0040   0.0057   0.0108  -0.0017  -0.0027  -0.0037   1.00    3.4
2025/10/15 16:31:46.000      2351.4714      5869.0921      -804.0221   1   8   0.0038   0.0058   0.0106  -0.0007  -0.0025  -0.0035   0.00    3.4
2025/10/15 16:31:47.000      2351.4723      5869.0905      -804.0234   1   8   0.0044   0.0057   0.0109  -0.0008  -0.0028  -0.0034   1.00    3.4
2025/10/15 16:31:48.000      2351.4685      5869.0926      -804.0165   1   8   0.0041   0.0056   0.0107  -0.0017  -0.0026  -0.0035   0.00    3.4
2025/10/15 16:31:49.000      2351.4704      5869.0904      -804.0194   1   8   0.0035   0.0057   0.0107  -0.0015  -0.0026  -0.0036   0.00    3.5
2025/10/15 16:31:50.000      2351.4709      5869.0897      -804.0218   1   8   0.0039   0.0058   0.0109  -0.0020  -0.0029  -0.0036   1.00    3.5
2025/10/15 16:31:51.000      2351.4680      5869.0948      -804.0148   1   8   0.0038   0.0056   0.0107  -0.0018  -0.0027  -0.0036   0.00    3.5
2025/10/15 16:31:52.000      2351.4686      5869.0904      -804.0165   1   8   0.0039   0.0057   0.0109  -0.0009  -0.0027  -0.0035   1.00    3.6
2025/10/15 16:31:53.000      2351.4661      5869.0967      -804.0177   1   8   0.0040   0.0057   0.0107  -0.0012  -0.0026  -0.0034   0.00    3.6
2025/10/15 16:31:54.000      2351.4686      5869.0938      -804.0196   1   8   0.0041   0.0056   0.0109  -0.0015  -0.0025  -0.0035   1.00    3.6
2025/10/15 16:31:55.000      2351.4676      5869.0986      -804.0211   1   8   0.0045   0.0058   0.0106  -0.0011  -0.0024  -0.0031   0.00    3.6
2025/10/15 16:31:56.000      2351.4648      5869.0941      -804.0202   1   8   0.0043   0.0055   0.0106  -0.0009  -0.0031  -0.0034   0.00    3.7
2025/10/15 16:31:57.000      2351.4687      5869.0901      -804.0224   1   8   0.0044   0.0057   0.0109  -0.0007  -0.0026  -0.0032   1.00    3.7
2025/10/15 16:31:58.000      2351.4683      5869.0916      -804.0194   1   8   0.0041   0.0058   0.0109  -0.0014  -0.0029  -0.0036   1.00    3.7
2025/10/15 16:31:59.000      2351.4670      5869.0941      -804.0185   1   8   0.0047   0.0054   0.0107  -0.0017  -0.0026  -0.0034   0.00    3.8
2025/10/15 16:32:00.000      2351.4651      5869.0929      -804.0178   1   8   0.0040   0.0056   0.0107  -0.0017  -0.0025  -0.0034   0.00    3.8
2025/10/15 16:32:01.000      2351.4677      5869.0910      -804.0198   1   8   0.0045   0.0058   0.0109  -0.0014  -0.0029  -0.0034   1.00    3.8
2025/10/15 16:32:02.000      2351.4682      5869.0917      -804.0256   1   8   0.0044   0.0057   0.0108  -0.0012  -0.0028  -0.0035   1.00    3.8
2025/10/15 16:32:03.000      2351.4703      5869.0903      -804.0237   1   8   0.0043   0.0057   0.0109  -0.0004  -0.0028  -0.0034   1.00    3.8
2025/10/15 16:32:04.000      2351.4677      5869.0924      -804.0199   1   8   0.0048   0.0054   0.0107  -0.0013  -0.0028  -0.0031   0.00    3.9
2025/10/15 16:32:05.000      2351.4678      5869.0911      -804.0204   1   8   0.0040   0.0057   0.0109  -0.0017  -0.0029  -0.0036   1.00    3.9
2025/10/15 16:32:06.000      2351.4678      5869.0929      -804.0139   1   8   0.0042   0.0057   0.0107  -0.0012  -0.0027  -0.0034   0.00    3.9
2025/10/15 16:32:07.000      2351.4697      5869.0908      -804.0222   1   8   0.0042   0.0056   0.0109  -0.0017  -0.0027  -0.0037   1.00    4.0
2025/10/15 16:32:08.000      2351.4686      5869.0918      -804.0183   1   8   0.0042   0.0055   0.0107  -0.0016  -0.0027  -0.0034   0.00    4.0
2025/10/15 16:32:09.000      2351.4680      5869.0923      -804.0156   1   8   0.0042   0.0056   0.0106  -0.0005  -0.0026  -0.0035   0.00    4.0
2025/10/15 16:32:10.000      2351.4677      5869.0917      -804.0188   1   8   0.0038   0.0055   0.0107  -0.0013  -0.0030  -0.0035   0.00    4.0
2025/10/15 16:32:11.000      2351.4665      5869.0935      -804.0139   1   8   0.0039   0.0056   0.0106  -0.0019  -0.0029  -0.0035   0.00    4.1
2025/10/15 16:32:12.000      2351.4679      5869.0908      -804.0260   1   8   0.0047   0.0057   0.0109  -0.0004  -0.0027  -0.0033   1.00    4.1
2025/10/15 16:32:13.000      2351.4659      5869.0948      -804.0184   1   8   0.0032   0.0056   0.0106  -0.0019  -0.0028  -0.0039   0.00    4.1
2025/10/15 16:32:14.000      2351.4642      5869.0983      -804.0179   1   8   0.0043   0.0057   0.0108  -0.0006  -0.0026  -0.0032   0.00    4.2
2025/10/15 16:32:15.000      2351.4618      5869.0933      -804.0114   1   8   0.0049   0.0055   0.0107   0.0001  -0.0028  -0.0032   0.00    4.2
2025/10/15 16:32:16.000      2351.4622      5869.0955      -804.0113   1   8   0.0041   0.0057   0.0105   0.0006  -0.0027  -0.0034   0.00    4.2
2025/10/15 16:32:17.000      2351.4631      5869.0939      -804.0233   1   8   0.0049   0.0059   0.0108  -0.0004  -0.0029  -0.0031   1.00    4.2
2025/10/15 16:32:18.000      2351.4588      5869.0919      -804.0101   1   8   0.0045   0.0058   0.0107  -0.0010  -0.0029  -0.0034   0.00    4.2
2025/10/15 16:32:19.000      2351.4602      5869.0930      -804.0088   1   8   0.0034   0.0055   0.0107  -0.0021  -0.0029  -0.0036   0.00    4.2
2025/10/15 16:32:20.000      2351.4589      5869.0941      -804.0083   1   8   0.0043   0.0056   0.0107  -0.0018  -0.0025  -0.0033   0.00    4.2
2025/10/15 16:32:21.000      2351.4607      5869.0941      -804.0073   1   8   0.0030   0.0055   0.0107  -0.0021  -0.0027  -0.0037   0.00    4.2
2025/10/15 16:32:22.000      2351.4611      5869.0910      -804.0142   1   8   0.0041   0.0058   0.0109  -0.0009  -0.0029  -0.0035   1.00    4.2
2025/10/15 16:32:23.000      2351.4611      5869.0904      -804.0065   1   8   0.0041   0.0056   0.0107  -0.0014  -0.0030  -0.0034   0.00    4.3
2025/10/15 16:32:24.000      2351.4587      5869.0926      -804.0092   1   8   0.0044   0.0057   0.0107  -0.0013  -0.0027  -0.0034   0.00    4.3
2025/10/15 16:32:25.000      2351.4595      5869.0928      -804.0097   1   8   0.0046   0.0056   0.0107  -0.0012  -0.0025  -0.0031   0.00    4.3
2025/10/15 16:32:26.000      2351.4617      5869.0885      -804.0083   1   8   0.0039   0.0059   0.0108  -0.0011  -0.0030  -0.0037   1.00    4.3
2025/10/15 16:32:27.000      2351.4591      5869.0898      -804.0084   1   8   0.0043   0.0057   0.0108  -0.0008  -0.0030  -0.0036   1.00    4.3
2025/10/15 16:32:28.000      2351.4591      5869.0925      -804.0114   1   8   0.0043   0.0056   0.0106  -0.0013  -0.0030  -0.0035   0.00    4.3
2025/10/15 16:32:29.000      2351.4585      5869.0937      -804.0075   1   8   0.0045   0.0058   0.0106  -0.0009  -0.0026  -0.0035   0.00    4.3
2025/10/15 16:32:30.000      2351.4578      5869.0939      -804.0114   1   8   0.0043   0.0056   0.0106  -0.0017  -0.0030  -0.0034   0.00    4.3
2025/10/15 16:32:31.000      2351.4588      5869.0946      -804.0107   1   8   0.0052   0.0057   0.0107  -0.0004  -0.0025  -0.0029   0.00    4.3
2025/10/15 16:32:32.000      2351.4605      5869.0909      -804.0111   1   8   0.0040   0.0058   0.0108  -0.0015  -0.0027  -0.0035   1.00    4.3
2025/10/15 16:32:33.000      2351.4612      5869.0951      -804.0058   1   8   0.0040   0.0056   0.0107  -0.0015  -0.0026  -0.0035   0.00    4.3
2025/10/15 16:32:34.000      2351.4601      5869.0978      -804.0071   1   8   0.0044   0.0054   0.0107  -0.0022  -0.0030  -0.0032   0.00    4.3
2025/10/15 16:32:35.000      2351.4602      5869.0965      -804.0129   1   8   0.0039   0.0057   0.0107  -0.0017  -0.0028  -0.0035   0.00    4.3
2025/10/15 16:32:36.000      2351.4606      5869.0979      -804.0147   1   8   0.0045   0.0057   0.0106  -0.0012  -0.0028  -0.0035   0.00    4.3
2025/10/15 16:32:37.000      2351.4614      5869.0954      -804.0135   1   8   0.0038   0.0060   0.0109  -0.0008  -0.0027  -0.0035   1.00    4.3
2025/10/15 16:32:38.000      2351.4609      5869.0986      -804.0135   1   8   0.0041   0.0056   0.0107  -0.0019  -0.0028  -0.0035   0.00    4.3
2025/10/15 16:32:39.000      2351.4616      5869.0992      -804.0055   1   8   0.0039   0.0057   0.0107  -0.0013  -0.0027  -0.0036   0.00    4.3
2025/10/15 16:32:40.000      2351.4614      5869.0988      -804.0124   1   8   0.0043   0.0057   0.0106  -0.0012  -0.0028  -0.0035   0.00    4.3
2025/10/15 16:32:41.000      2351.4618      5869.0965      -804.0160   1   8   0.0037   0.0058   0.0106  -0.0017  -0.0027  -0.0035   0.00    4.3
2025/10/15 16:32:42.000      2351.4634      5869.0927      -804.0186   1   8   0.0038   0.0057   0.0109  -0.0021  -0.0030  -0.0036   1.00    4.3
2025/10/15 16:32:43.000      2351.4615      5869.0969      -804.0152   1   8   0.0043   0.0057   0.0106  -0.0013  -0.0030  -0.0034   0.00    4.2
2025/10/15 16:32:44.000      2351.4617      5869.0966      -804.0162   1   8   0.0036   0.0054   0.0106  -0.0020  -0.0028  -0.0036   0.00    4.2
2025/10/15 16:32:45.000      2351.4619      5869.0980      -804.0184   1   8   0.0043   0.0058   0.0106  -0.0013  -0.0029  -0.0034   0.00    4.2
2025/10/15 16:32:46.000      2351.4661      5869.0948      -804.0271   1   8   0.0048   0.0059   0.0108   0.0010  -0.0029  -0.0034   1.00    4.2
2025/10/15 16:32:47.000      2351.4651      5869.0983      -804.0291   1   8   0.0049   0.0058   0.0110  -0.0009  -0.0029  -0.0030   1.00    4.2
2025/10/15 16:32:48.000      2351.4646      5869.1001      -804.0330   1   8   0.0042   0.0057   0.0108  -0.0011  -0.0030  -0.0035   1.00    4.2
2025/10/15 16:32:49.000      2351.4665      5869.0967      -804.0236   1   8   0.0040   0.0058   0.0108  -0.0013  -0.0031  -0.0037   1.00    4.2
2025/10/15 16:32:50.000      2351.4659      5869.0969      -804.0291   1   8   0.0042   0.0057   0.0108  -0.0016  -0.0030  -0.0035   1.00    4.1
2025/10/15 16:32:51.000      2351.4642      5869.1002      -804.0200   1   8   0.0038   0.0056   0.0107  -0.0020  -0.0029  -0.0034   0.00    4.1
2025/10/15 16:32:52.000      2351.4669      5869.0983      -804.0275   1   8   0.0044   0.0057   0.0108  -0.0014  -0.0030  -0.0035   1.00    4.1
2025/10/15 16:32:53.000      2351.4636      5869.1014      -804.0224   1   8   0.0037   0.0057   0.0107  -0.0017  -0.0029  -0.0035   0.00    4.1
2025/10/15 16:32:54.000      2351.4640      5869.1018      -804.0253   1   8   0.0040   0.0057   0.0106  -0.0010  -0.0028  -0.0035   0.00    4.0
2025/10/15 16:32:55.000      2351.4633      5869.0990      -804.0273   1   8   0.0034   0.0059   0.0105  -0.0012  -0.0028  -0.0036   0.00    4.0
2025/10/15 16:32:56.000      2351.4620      5869.1018      -804.0265   1   8   0.0034   0.0056   0.0106  -0.0018  -0.0029  -0.0037   0.00    4.0
2025/10/15 16:32:57.000      2351.4638      5869.0981      -804.0310   1   8   0.0050   0.0056   0.0108  -0.0012  -0.0028  -0.0032   1.00    4.0
2025/10/15 16:32:58.000      2351.4622      5869.0985      -804.0264   1   8   0.0048   0.0056   0.0107  -0.0012  -0.0023  -0.0032   0.00    4.0
2025/10/15 16:32:59.000      2351.4626      5869.0987      -804.0240   1   8   0.0045   0.0056   0.0106   0.0007  -0.0025  -0.0032   0.00    4.0
2025/10/15 16:33:00.000      2351.4635      5869.1001      -804.0233   1   8   0.0033   0.0057   0.0107  -0.0020  -0.0028  -0.0037   0.00    4.0
2025/10/15 16:33:01.000      2351.4621      5869.0984      -804.0237   1   8   0.0038   0.0058   0.0105  -0.0018  -0.0029  -0.0035   0.00    3.9
2025/10/15 16:33:02.000      2351.4627      5869.0943      -804.0300   1   8   0.0047   0.0056   0.0107  -0.0012  -0.0029  -0.0035   1.00    3.9
2025/10/15 16:33:03.000      2351.4628      5869.0988      -804.0248   1   8   0.0028   0.0055   0.0107  -0.0022  -0.0029  -0.0038   0.00    3.9
2025/10/15 16:33:04.000      2351.4617      5869.0995      -804.0216   1   8   0.0051   0.0060   0.0106   0.0006  -0.0025  -0.0033   0.00    3.9
2025/10/15 16:33:05.000      2351.4618      5869.0978      -804.0201   1   8   0.0037   0.0057   0.0106  -0.0020  -0.0028  -0.0036   0.00    3.9
2025/10/15 16:33:06.000      2351.4635      5869.0947      -804.0230   1   8   0.0042   0.0058   0.0108  -0.0014  -0.0030  -0.0035   1.00    3.9
2025/10/15 16:33:07.000      2351.4643      5869.0955      -804.0203   1   8   0.0032   0.0058   0.0108  -0.0018  -0.0030  -0.0037   1.00    3.9
2025/10/15 16:33:08.000      2351.4612      5869.0941      -804.0165   1   8   0.0041   0.0059   0.0108  -0.0016  -0.0030  -0.0035   0.00    3.9
2025/10/15 16:33:09.000      2351.4603      5869.0964      -804.0145   1   8   0.0040   0.0058   0.0105  -0.0009  -0.0027  -0.0033   0.00    3.9
2025/10/15 16:33:10.000      2351.4623      5869.0940      -804.0192   1   8   0.0044   0.0060   0.0108  -0.0012  -0.0029  -0.0032   1.00    3.9
2025/10/15 16:33:11.000      2351.4586      5869.0931      -804.0136   1   8   0.0041   0.0056   0.0107  -0.0015  -0.0028  -0.0034   0.00    3.8
2025/10/15 16:33:12.000      2351.4604      5869.0894      -804.0203   1   8   0.0034   0.0058   0.0108  -0.0013  -0.0030  -0.0038   1.00    3.8
2025/10/15 16:33:13.000      2351.4566      5869.0931      -804.0157   1   8   0.0041   0.0059   0.0108  -0.0014  -0.0029  -0.0034   0.00    3.8
2025/10/15 16:33:14.000      2351.4581      5869.0917      -804.0190   1   8   0.0044   0.0057   0.0109  -0.0010  -0.0026  -0.0034   1.00    3.8
2025/10/15 16:33:15.000      2351.4552      5869.0928      -804.0170   1   8   0.0038   0.0054   0.0107  -0.0015  -0.0029  -0.0035   0.00    3.8
2025/10/15 16:33:16.000      2351.4548      5869.0910      -804.0149   1   8   0.0034   0.0057   0.0106  -0.0017  -0.0028  -0.0037   0.00    3.8
2025/10/15 16:33:17.000      2351.4562      5869.0898      -804.0155   1   8   0.0040   0.0058   0.0107  -0.0013  -0.0030  -0.0036   1.00    3.8
2025/10/15 16:33:18.000      2351.4590      5869.0899      -804.0139   1   8   0.0044   0.0056   0.0107  -0.0016  -0.0028  -0.0034   0.00    3.8
2025/10/15 16:33:19.000      2351.4594      5869.0911      -804.0154   1   8   0.0045   0.0058   0.0106  -0.0010  -0.0030  -0.0032   0.00    3.8
2025/10/15 16:33:20.000      2351.4591      5869.0931      -804.0114   1   8   0.0040   0.0057   0.0107  -0.0017  -0.0030  -0.0034   0.00    3.8
2025/10/15 16:33:21.000      2351.4597      5869.0923      -804.0099   1   8   0.0047   0.0058   0.0107   0.0004  -0.0025  -0.0033   0.00    3.8
2025/10/15 16:33:22.000      2351.4597      5869.0927      -804.0111   1   8   0.0042   0.0058   0.0108  -0.0011  -0.0030  -0.0036   1.00    3.8
2025/10/15 16:33:23.000      2351.4584      5869.0948      -804.0102   1   8   0.0049   0.0058   0.0107   0.0007  -0.0026  -0.0031   0.00    3.8
2025/10/15 16:33:24.000      2351.4577      5869.0970      -804.0078   1   8   0.0036   0.0058   0.0106  -0.0009  -0.0031  -0.0038   0.00    3.8
2025/10/15 16:33:25.000      2351.4590      5869.0984      -804.0129   1   8   0.0042   0.0057   0.0106  -0.0012  -0.0029  -0.0034   0.00    3.7
2025/10/15 16:33:26.000      2351.4612      5869.0954      -804.0162   1   8   0.0044   0.0058   0.0108  -0.0015  -0.0029  -0.0033   1.00    3.7
2025/10/15 16:33:27.000      2351.4596      5869.0982      -804.0186   1   8   0.0052   0.0059   0.0108  -0.0006  -0.0030  -0.0032   1.00    3.7
2025/10/15 16:33:28.000      2351.4584      5869.1011      -804.0115   1   8   0.0039   0.0055   0.0106  -0.0019  -0.0029  -0.0035   0.00    3.7
2025/10/15 16:33:29.000      2351.4606      5869.0994      -804.0149   1   8   0.0039   0.0056   0.0106  -0.0017  -0.0028  -0.0036   0.00    3.7
2025/10/15 16:33:30.000      2351.4607      5869.1017      -804.0104   1   8   0.0043   0.0057   0.0107  -0.0011  -0.0026  -0.0033   0.00    3.7
2025/10/15 16:33:31.000      2351.4615      5869.1016      -804.0144   1   8   0.0037   0.0056   0.0106  -0.0021  -0.0028  -0.0034   0.00    3.7
2025/10/15 16:33:32.000      2351.4643      5869.1003      -804.0186   1   8   0.0036   0.0058   0.0108  -0.0020  -0.0031  -0.0037   1.00    3.7
2025/10/15 16:33:33.000      2351.4622      5869.1035      -804.0144   1   8   0.0046   0.0058   0.0106  -0.0009  -0.0031  -0.0033   0.00    3.7
2025/10/15 16:33:34.000      2351.4637      5869.1048      -804.0115   1   8   0.0043   0.0056   0.0106  -0.0019  -0.0029  -0.0032   0.00    3.7
2025/10/15 16:33:35.000      2351.4632      5869.1016      -804.0105   1   8   0.0041   0.0056   0.0107  -0.0019  -0.0029  -0.0034   0.00    3.7
2025/10/15 16:33:36.000      2351.4635      5869.1030      -804.0130   1   8   0.0039   0.0056   0.0107  -0.0015  -0.0028  -0.0033   0.00    3.7
2025/10/15 16:33:37.000      2351.4631      5869.1050      -804.0117   1   8   0.0036   0.0057   0.0105  -0.0019  -0.0029  -0.0037   0.00    3.7
2025/10/15 16:33:38.000      2351.4641      5869.1028      -804.0119   1   8   0.0050   0.0057   0.0106  -0.0010  -0.0029  -0.0032   0.00    3.7
2025/10/15 16:33:39.000      2351.4661      5869.1000      -804.0113   1   8   0.0041   0.0057   0.0107  -0.0020  -0.0033  -0.0036   1.00    3.7
2025/10/15 16:33:40.000      2351.4622      5869.1017      -804.0042   1   8   0.0028   0.0055   0.0106  -0.0024  -0.0032  -0.0039   0.00    3.7
2025/10/15 16:33:41.000      2351.4616      5869.1031      -804.0066   1   8   0.0041   0.0058   0.0106  -0.0012  -0.0028  -0.0035   0.00    3.7
2025/10/15 16:33:42.000      2351.4648      5869.1003      -804.0110   1   8   0.0047   0.0059   0.0109   0.0007  -0.0027  -0.0034   1.00    3.7
2025/10/15 16:33:43.000      2351.4651      5869.1018      -804.0127   1   8   0.0033   0.0058   0.0107  -0.0021  -0.0031  -0.0036   1.00    3.7
2025/10/15 16:33:44.000      2351.4617      5869.1036      -804.0020   1   8   0.0046   0.0057   0.0106  -0.0015  -0.0029  -0.0032   0.00    3.7
2025/10/15 16:33:45.000      2351.4627      5869.1036      -804.0020   1   8   0.0043   0.0058   0.0106  -0.0013  -0.0027  -0.0034   0.00    3.7
2025/10/15 16:33:46.000      2351.4616      5869.1044      -804.0013   1   8   0.0033   0.0057   0.0106  -0.0016  -0.0030  -0.0035   0.00    3.6
2025/10/15 16:33:47.000      2351.4633      5869.1010      -804.0046   1   8   0.0039   0.0060   0.0108  -0.0017  -0.0029  -0.0036   1.00    3.6
2025/10/15 16:33:48.000      2351.4617      5869.1018      -803.9979   1   8   0.0044   0.0055   0.0107  -0.0016  -0.0028  -0.0034   0.00    3.6
2025/10/15 16:33:49.000      2351.4627      5869.1023      -804.0003   1   8   0.0048   0.0057   0.0106  -0.0011  -0.0028  -0.0033   0.00    3.6
2025/10/15 16:33:50.000      2351.4615      5869.1020      -803.9999   1   8   0.0049   0.0055   0.0107  -0.0013  -0.0027  -0.0032   0.00    3.6
2025/10/15 16:33:51.000      2351.4605      5869.1014      -803.9963   1   8   0.0034   0.0058   0.0106  -0.0019  -0.0026  -0.0038   0.00    3.6
2025/10/15 16:33:52.000      2351.4616      5869.0988      -803.9995   1   8   0.0043   0.0058   0.0108  -0.0015  -0.0032  -0.0034   1.00    3.6
2025/10/15 16:33:53.000      2351.4601      5869.0985      -803.9950   1   8   0.0048   0.0055   0.0106  -0.0012  -0.0028  -0.0032   0.00    3.6
2025/10/15 16:33:54.000      2351.4611      5869.0985      -803.9928   1   8   0.0039   0.0058   0.0106  -0.0011  -0.0030  -0.0033   0.00    3.6
2025/10/15 16:33:55.000      2351.4624      5869.0979      -803.9910   1   8   0.0042   0.0055   0.0107  -0.0014  -0.0030  -0.0031   0.00    3.6
2025/10/15 16:33:56.000      2351.4659      5869.0966      -803.9982   1   8   0.0041   0.0057   0.0108  -0.0011  -0.0028  -0.0035   1.00    3.6
2025/10/15 16:33:57.000      2351.4658      5869.0922      -803.9937   1   8   0.0043   0.0059   0.0108  -0.0009  -0.0030  -0.0032   1.00    3.6
2025/10/15 16:33:58.000      2351.4616      5869.0981      -803.9895   1   8   0.0045   0.0058   0.0106  -0.0012  -0.0026  -0.0033   0.00    3.6
2025/10/15 16:33:59.000      2351.4632      5869.0988      -803.9932   1   8   0.0037   0.0057   0.0106  -0.0014  -0.0029  -0.0035   0.00    3.6
2025/10/15 16:34:00.000      2351.4638      5869.0990      -803.9941   1   8   0.0044   0.0055   0.0106  -0.0016  -0.0029  -0.0032   0.00    3.6
2025/10/15 16:34:01.000      2351.4625      5869.0981      -803.9891   1   8   0.0039   0.0057   0.0107  -0.0022  -0.0029  -0.0036   0.00    3.6
2025/10/15 16:34:02.000      2351.4642      5869.0955      -803.9938   1   8   0.0043   0.0057   0.0108  -0.0018  -0.0030  -0.0035   1.00    3.6
2025/10/15 16:34:03.000      2351.4659      5869.0965      -803.9974   1   8   0.0043   0.0057   0.0108  -0.0019  -0.0031  -0.0034   1.00    3.6
2025/10/15 16:34:04.000      2351.4632      5869.0964      -803.9979   1   8   0.0039   0.0058   0.0107  -0.0015  -0.0031  -0.0035   1.00    3.6
2025/10/15 16:34:05.000      2351.4615      5869.1017      -803.9974   1   8   0.0029   0.0057   0.0105  -0.0020  -0.0031  -0.0038   0.00    3.6
2025/10/15 16:34:06.000      2351.4603      5869.1034      -803.9963   1   8   0.0049   0.0057   0.0106   0.0006  -0.0028  -0.0033   0.00    3.6
2025/10/15 16:34:07.000      2351.4627      5869.1004      -804.0037   1   8   0.0047   0.0058   0.0108  -0.0011  -0.0030  -0.0033   1.00    3.6
2025/10/15 16:34:08.000      2351.4617      5869.1010      -804.0005   1   8   0.0045   0.0057   0.0107  -0.0016  -0.0030  -0.0032   0.00    3.6
2025/10/15 16:34:09.000      2351.4617      5869.1004      -803.9990   1   8   0.0041   0.0059   0.0105  -0.0007  -0.0029  -0.0036   0.00    3.6
2025/10/15 16:34:10.000      2351.4622      5869.1005      -803.9980   1   8   0.0032   0.0056   0.0107  -0.0020  -0.0032  -0.0037   0.00    3.6
2025/10/15 16:34:11.000      2351.4620      5869.0996      -804.0018   1   8   0.0043   0.0058   0.0107  -0.0013  -0.0030  -0.0032   0.00    3.6
2025/10/15 16:34:12.000      2351.4641      5869.0984      -804.0024   1   8   0.0040   0.0059   0.0108  -0.0016  -0.0031  -0.0035   1.00    3.6
2025/10/15 16:34:13.000      2351.4648      5869.0967      -804.0058   1   8   0.0047   0.0060   0.0108  -0.0004  -0.0030  -0.0034   1.00    3.6
2025/10/15 16:34:14.000      2351.4601      5869.0969      -803.9963   1   8   0.0047   0.0055   0.0105  -0.0008  -0.0028  -0.0034   0.00    3.6
2025/10/15 16:34:15.000      2351.4626      5869.0999      -804.0030   1   8   0.0034   0.0056   0.0106  -0.0022  -0.0028  -0.0036   0.00    3.6
2025/10/15 16:34:16.000      2351.4604      5869.0999      -804.0000   1   8   0.0042   0.0058   0.0107  -0.0002  -0.0031  -0.0033   0.00    3.6
2025/10/15 16:34:17.000      2351.4641      5869.0969      -804.0026   1   8   0.0046   0.0060   0.0108  -0.0010  -0.0030  -0.0034   1.00    3.6
2025/10/15 16:34:18.000      2351.4619      5869.1006      -803.9994   1   8   0.0041   0.0057   0.0106   0.0005  -0.0028  -0.0037   0.00    3.6
2025/10/15 16:34:19.000      2351.4613      5869.0989      -803.9984   1   8   0.0042   0.0055   0.0107  -0.0021  -0.0029  -0.0033   0.00    3.6
2025/10/15 16:34:20.000      2351.4617      5869.0967      -803.9962   1   8   0.0048   0.0057   0.0105   0.0004  -0.0029  -0.0031   0.00    3.6
2025/10/15 16:34:21.000      2351.4616      5869.1000      -804.0040   1   8   0.0046   0.0058   0.0106  -0.0012  -0.0029  -0.0033   0.00    3.6
2025/10/15 16:34:22.000      2351.4625      5869.0965      -804.0027   1   8   0.0041   0.0058   0.0109  -0.0020  -0.0034  -0.0035   1.00    3.6
2025/10/15 16:34:23.000      2351.4625      5869.1014      -804.0041   1   8   0.0049   0.0056   0.0105  -0.0006  -0.0029  -0.0033   0.00    3.6
2025/10/15 16:34:24.000      2351.4599      5869.1001      -804.0000   1   8   0.0039   0.0057   0.0107  -0.0019  -0.0028  -0.0035   0.00    3.6
2025/10/15 16:34:25.000      2351.4637      5869.0994      -804.0016   1   8   0.0044   0.0056   0.0106  -0.0015  -0.0030  -0.0032   0.00    3.6
2025/10/15 16:34:26.000      2351.4642      5869.0995      -804.0043   1   8   0.0047   0.0058   0.0109  -0.0013  -0.0031  -0.0033   1.00    3.6
2025/10/15 16:34:27.000      2351.4649      5869.0948      -804.0007   1   8   0.0045   0.0058   0.0108  -0.0014  -0.0031  -0.0034   1.00    3.6
2025/10/15 16:34:28.000      2351.4632      5869.1008      -804.0024   1   8   0.0045   0.0058   0.0104  -0.0013  -0.0029  -0.0036   0.00    3.6
2025/10/15 16:34:29.000      2351.4605      5869.1008      -803.9975   1   8   0.0044   0.0057   0.0106  -0.0013  -0.0028  -0.0034   0.00    3.6
2025/10/15 16:34:30.000      2351.4600      5869.0966      -804.0021   1   8   0.0046   0.0058   0.0106  -0.0012  -0.0030  -0.0031   0.00    3.6
2025/10/15 16:34:31.000      2351.4612      5869.0965      -804.0029   1   8   0.0048   0.0058   0.0108  -0.0007  -0.0030  -0.0033   1.00    3.6
2025/10/15 16:34:32.000      2351.4631      5869.0945      -803.9990   1   8   0.0043   0.0058   0.0106  -0.0013  -0.0031  -0.0037   1.00    3.6
2025/10/15 16:34:33.000      2351.4615      5869.0948      -803.9979   1   8   0.0044   0.0059   0.0108  -0.0003  -0.0031  -0.0033   1.00    3.6
2025/10/15 16:34:34.000      2351.4644      5869.0943      -804.0032   1   8   0.0042   0.0058   0.0108  -0.0015  -0.0030  -0.0034   1.00    3.6
2025/10/15 16:34:35.000      2351.4615      5869.0949      -803.9979   1   8   0.0047   0.0057   0.0106  -0.0012  -0.0029  -0.0033   0.00    3.6
2025/10/15 16:34:36.000      2351.4648      5869.0939      -804.0026   1   8   0.0040   0.0060   0.0108  -0.0017  -0.0029  -0.0037   1.00    3.6
2025/10/15 16:34:37.000      2351.4653      5869.0984      -804.0061   1   8   0.0044   0.0058   0.0108  -0.0016  -0.0029  -0.0035   1.00    3.6
2025/10/15 16:34:38.000      2351.4623      5869.1039      -804.0031   1   8   0.0044   0.0058   0.0106  -0.0019  -0.0027  -0.0034   0.00    3.6
2025/10/15 16:34:39.000      2351.4613      5869.1022      -804.0017   1   8   0.0040   0.0061   0.0107  -0.0012  -0.0029  -0.0034   0.00    3.6
2025/10/15 16:34:40.000      2351.4622      5869.1017      -804.0004   1   8   0.0039   0.0056   0.0107  -0.0019  -0.0031  -0.0032   0.00    3.6
2025/10/15 16:34:41.000      2351.4649      5869.0980      -804.0055   1   8   0.0046   0.0057   0.0109  -0.0016  -0.0029  -0.0031   1.00    3.6
2025/10/15 16:34:42.000      2351.4677      5869.0933      -804.0034   1   8   0.0034   0.0058   0.0109  -0.0023  -0.0030  -0.0036   1.00    3.6
2025/10/15 16:34:43.000      2351.4649      5869.0922      -804.0014   1   8   0.0045   0.0057   0.0107  -0.0015  -0.0028  -0.0035   0.00    3.6
2025/10/15 16:34:44.000      2351.4659      5869.0902      -804.0008   1   8   0.0034   0.0058   0.0106  -0.0021  -0.0030  -0.0036   0.00    3.6
2025/10/15 16:34:45.000      2351.4653      5869.0930      -804.0012   1   8   0.0033   0.0059   0.0107  -0.0020  -0.0028  -0.0034   0.00    3.7
2025/10/15 16:34:46.000      2351.4674      5869.0897      -804.0003   1   8   0.0047   0.0058   0.0105   0.0001  -0.0030  -0.0034   0.00    3.7
2025/10/15 16:34:47.000      2351.4696      5869.0873      -804.0031   1   8   0.0039   0.0058   0.0109  -0.0017  -0.0029  -0.0037   1.00    3.7
2025/10/15 16:34:48.000      2351.4663      5869.0917      -804.0017   1   8   0.0047   0.0058   0.0106  -0.0011  -0.0029  -0.0034   0.00    3.7
2025/10/15 16:34:49.000      2351.4656      5869.0910      -803.9987   1   8   0.0046   0.0057   0.0107  -0.0011  -0.0027  -0.0032   0.00    3.7
2025/10/15 16:34:50.000      2351.4661      5869.0919      -803.9971   1   8   0.0033   0.0056   0.0105  -0.0020  -0.0030  -0.0037   0.00    3.7
2025/10/15 16:34:51.000      2351.4678      5869.0895      -804.0058   1   8   0.0043   0.0058   0.0107  -0.0015  -0.0032  -0.0037   1.00    3.7
2025/10/15 16:34:52.000      2351.4683      5869.0854      -804.0061   1   8   0.0035   0.0058   0.0107  -0.0016  -0.0032  -0.0037   1.00    3.8
2025/10/15 16:34:53.000      2351.4676      5869.0907      -804.0027   1   8   0.0037   0.0058   0.0106  -0.0015  -0.0030  -0.0036   0.00    3.8
2025/10/15 16:34:54.000      2351.4691      5869.0889      -804.0076   1   8   0.0041   0.0058   0.0107  -0.0018  -0.0030  -0.0033   1.00    3.8
2025/10/15 16:34:55.000      2351.4667      5869.0907      -804.0046   1   8   0.0049   0.0057   0.0106  -0.0012  -0.0029  -0.0035   0.00    3.8
2025/10/15 16:34:56.000      2351.4655      5869.0907      -804.0002   1   8   0.0038   0.0057   0.0105  -0.0019  -0.0030  -0.0036   0.00    3.8
2025/10/15 16:34:57.000      2351.4674      5869.0897      -804.0076   1   8   0.0048   0.0060   0.0109  -0.0013  -0.0030  -0.0032   1.00    3.8
2025/10/15 16:34:58.000      2351.4652      5869.0939      -804.0085   1   8   0.0040   0.0059   0.0106  -0.0014  -0.0027  -0.0035   0.00    3.8
2025/10/15 16:34:59.000      2351.4659      5869.0918      -804.0116   1   8   0.0042   0.0060   0.0106  -0.0010  -0.0032  -0.0033   0.00    3.8
2025/10/15 16:35:00.000      2351.4673      5869.0918      -804.0088   1   8   0.0047   0.0060   0.0106  -0.0002  -0.0032  -0.0033   0.00    3.8
2025/10/15 16:35:01.000      2351.4655      5869.0933      -804.0097   1   8   0.0044   0.0058   0.0106  -0.0016  -0.0029  -0.0033   0.00    3.9
2025/10/15 16:35:02.000      2351.4674      5869.0893      -804.0162   1   8   0.0039   0.0058   0.0108  -0.0009  -0.0031  -0.0034   1.00    3.9
2025/10/15 16:35:03.000      2351.4666      5869.0921      -804.0118   1   8   0.0036   0.0060   0.0106  -0.0017  -0.0028  -0.0032   0.00    3.9
2025/10/15 16:35:04.000      2351.4647      5869.0958      -804.0110   1   8   0.0044   0.0059   0.0106  -0.0013  -0.0032  -0.0035   0.00    3.9
2025/10/15 16:35:05.000      2351.4662      5869.0941      -804.0198   1   8   0.0048   0.0058   0.0108  -0.0014  -0.0031  -0.0032   1.00    3.9
2025/10/15 16:35:06.000      2351.4648      5869.0957      -804.0096   1   8   0.0037   0.0059   0.0105  -0.0016  -0.0031  -0.0036   0.00    3.9
2025/10/15 16:35:07.000      2351.4645      5869.0963      -804.0116   1   8   0.0038   0.0059   0.0105  -0.0017  -0.0028  -0.0034   0.00    3.9
2025/10/15 16:35:08.000      2351.4647      5869.0913      -804.0145   1   8   0.0030   0.0057   0.0107  -0.0020  -0.0033  -0.0039   1.00    3.9
2025/10/15 16:35:09.000      2351.4652      5869.0961      -804.0145   1   8   0.0044   0.0059   0.0107  -0.0017  -0.0028  -0.0032   0.00    4.0
2025/10/15 16:35:10.000      2351.4651      5869.0949      -804.0118   1   8   0.0041   0.0057   0.0105  -0.0013  -0.0030  -0.0036   0.00    4.0
2025/10/15 16:35:11.000      2351.4647      5869.0974      -804.0165   1   8   0.0034   0.0058   0.0105  -0.0018  -0.0029  -0.0035   0.00    4.0
2025/10/15 16:35:12.000      2351.4673      5869.0938      -804.0220   1   8   0.0042   0.0059   0.0108  -0.0013  -0.0032  -0.0036   1.00    4.0
2025/10/15 16:35:13.000      2351.4639      5869.0939      -804.0214   1   8   0.0050   0.0060   0.0107  -0.0008  -0.0031  -0.0032   1.00    4.0
2025/10/15 16:35:14.000      2351.4639      5869.0965      -804.0134   1   8   0.0045   0.0056   0.0106  -0.0005  -0.0030  -0.0033   0.00    4.0
2025/10/15 16:35:15.000      2351.4650      5869.0966      -804.0174   1   8   0.0043   0.0057   0.0105  -0.0017  -0.0031  -0.0036   0.00    4.0
2025/10/15 16:35:16.000      2351.4662      5869.0963      -804.0227   1   8   0.0046   0.0058   0.0106  -0.0015  -0.0030  -0.0033   0.00    4.0
2025/10/15 16:35:17.000      2351.4678      5869.0928      -804.0247   1   8   0.0049   0.0059   0.0107  -0.0013  -0.0032  -0.0031   1.00    4.0
2025/10/15 16:35:18.000      2351.4647      5869.0980      -804.0267   1   8   0.0043   0.0058   0.0106  -0.0018  -0.0028  -0.0033   0.00    4.0
2025/10/15 16:35:19.000      2351.4653      5869.0965      -804.0276   1   8   0.0046   0.0060   0.0106  -0.0005  -0.0029  -0.0031   0.00    4.1
2025/10/15 16:35:20.000      2351.4668      5869.0967      -804.0307   1   8   0.0040   0.0059   0.0106  -0.0015  -0.0029  -0.0034   0.00    4.1
2025/10/15 16:35:21.000      2351.4689      5869.0935      -804.0370   1   8   0.0036   0.0057   0.0107  -0.0020  -0.0033  -0.0035   1.00    4.1
2025/10/15 16:35:22.000      2351.4690      5869.0983      -804.0400   1   8   0.0042   0.0058   0.0108  -0.0018  -0.0031  -0.0034   1.00    4.1
2025/10/15 16:35:23.000      2351.4663      5869.0987      -804.0340   1   8   0.0023   0.0057   0.0105  -0.0022  -0.0031  -0.0039   0.00    4.1
2025/10/15 16:35:24.000      2351.4663      5869.0987      -804.0358   1   8   0.0040   0.0058   0.0106  -0.0016  -0.0030  -0.0033   0.00    4.1
2025/10/15 16:35:25.000      2351.4682      5869.0963      -804.0410   1   8   0.0039   0.0059   0.0108  -0.0019  -0.0032  -0.0035   1.00    4.1
2025/10/15 16:35:26.000      2351.4672      5869.0987      -804.0360   1   8   0.0042   0.0059   0.0106  -0.0012  -0.0030  -0.0035   0.00    4.1
2025/10/15 16:35:27.000      2351.4676      5869.0956      -804.0364   1   8   0.0044   0.0060   0.0108  -0.0010  -0.0029  -0.0035   1.00    4.1
2025/10/15 16:35:28.000      2351.4699      5869.0959      -804.0405   1   8   0.0036   0.0058   0.0108  -0.0017  -0.0032  -0.0037   1.00    4.1
2025/10/15 16:35:29.000      2351.4676      5869.0988      -804.0349   1   8   0.0040   0.0056   0.0106  -0.0013  -0.0031  -0.0033   0.00    4.1
2025/10/15 16:35:30.000      2351.4683      5869.0959      -804.0314   1   8   0.0040   0.0058   0.0106  -0.0021  -0.0028  -0.0035   0.00    4.1
2025/10/15 16:35:31.000      2351.4677      5869.0967      -804.0277   1   8   0.0042   0.0056   0.0106  -0.0023  -0.0030  -0.0035   0.00    4.1
2025/10/15 16:35:32.000      2351.4701      5869.0930      -804.0299   1   8   0.0035   0.0060   0.0109  -0.0009  -0.0031  -0.0036   1.00    4.1
2025/10/15 16:35:33.000      2351.4705      5869.0962      -804.0326   1   8   0.0042   0.0061   0.0108  -0.0019  -0.0031  -0.0035   1.00    4.1
2025/10/15 16:35:34.000      2351.4674      5869.0981      -804.0243   1   8   0.0044   0.0058   0.0106  -0.0016  -0.0029  -0.0033   0.00    4.2
2025/10/15 16:35:35.000      2351.4702      5869.0980      -804.0288   1   8   0.0034   0.0059   0.0107  -0.0018  -0.0032  -0.0037   1.00    4.2
2025/10/15 16:35:36.000      2351.4673      5869.0985      -804.0244   1   8   0.0038   0.0059   0.0106  -0.0019  -0.0031  -0.0035   0.00    4.2
2025/10/15 16:35:37.000      2351.4714      5869.0938      -804.0284   1   8   0.0041   0.0058   0.0108  -0.0018  -0.0032  -0.0034   1.00    4.2
2025/10/15 16:35:38.000      2351.4669      5869.0963      -804.0213   1   8   0.0036   0.0058   0.0106  -0.0020  -0.0030  -0.0034   0.00    4.2
2025/10/15 16:35:39.000      2351.4661      5869.0978      -804.0211   1   8   0.0045   0.0058   0.0106  -0.0017  -0.0028  -0.0033   0.00    4.2
2025/10/15 16:35:40.000      2351.4652      5869.0970      -804.0253   1   8   0.0039   0.0059   0.0106  -0.0015  -0.0030  -0.0034   0.00    4.2
2025/10/15 16:35:41.000      2351.4664      5869.0975      -804.0286   1   8   0.0041   0.0058   0.0106  -0.0010  -0.0028  -0.0035   0.00    4.2
2025/10/15 16:35:42.000      2351.4674      5869.0918      -804.0273   1   8   0.0047   0.0061   0.0107  -0.0009  -0.0031  -0.0034   1.00    4.2
2025/10/15 16:35:43.000      2351.4640      5869.0971      -804.0272   1   8   0.0039   0.0059   0.0107  -0.0011  -0.0031  -0.0035   0.00    4.2
2025/10/15 16:35:44.000      2351.4644      5869.0949      -804.0237   1   8   0.0043   0.0058   0.0106  -0.0018  -0.0030  -0.0033   0.00    4.2
2025/10/15 16:35:45.000      2351.4671      5869.0934      -804.0259   1   8   0.0045   0.0058   0.0107  -0.0016  -0.0031  -0.0035   1.00    4.2
2025/10/15 16:35:46.000      2351.4645      5869.0995      -804.0251   1   8   0.0037   0.0057   0.0106  -0.0022  -0.0028  -0.0035   0.00    4.3
2025/10/15 16:35:47.000      2351.4665      5869.0949      -804.0259   1   8   0.0038   0.0059   0.0109  -0.0020  -0.0030  -0.0035   1.00    4.3
2025/10/15 16:35:48.000      2351.4632      5869.0964      -804.0199   1   8   0.0041   0.0058   0.0106  -0.0016  -0.0031  -0.0034   0.00    4.3
2025/10/15 16:35:49.000      2351.4653      5869.0973      -804.0210   1   8   0.0045   0.0059   0.0106  -0.0015  -0.0028  -0.0032   0.00    4.3
2025/10/15 16:35:50.000      2351.4653      5869.0947      -804.0201   1   8   0.0042   0.0059   0.0107  -0.0016  -0.0028  -0.0033   0.00    4.3
2025/10/15 16:35:51.000      2351.4642      5869.0950      -804.0215   1   8   0.0044   0.0057   0.0106  -0.0017  -0.0030  -0.0032   0.00    4.3
2025/10/15 16:35:52.000      2351.4653      5869.0884      -804.0261   1   8   0.0045   0.0058   0.0107  -0.0017  -0.0032  -0.0033   1.00    4.3
2025/10/15 16:35:53.000      2351.4623      5869.0935      -804.0211   1   8   0.0034   0.0059   0.0106  -0.0021  -0.0031  -0.0037   0.00    4.3
2025/10/15 16:35:54.000      2351.4652      5869.0895      -804.0256   1   8   0.0048   0.0059   0.0107  -0.0012  -0.0033  -0.0033   1.00    4.3
2025/10/15 16:35:55.000      2351.4639      5869.0913      -804.0205   1   8   0.0038   0.0059   0.0105  -0.0013  -0.0030  -0.0036   0.00    4.3
2025/10/15 16:35:56.000      2351.4614      5869.0900      -804.0230   1   8   0.0032   0.0059   0.0105  -0.0020  -0.0030  -0.0037   0.00    4.3
2025/10/15 16:35:57.000      2351.4631      5869.0898      -804.0271   1   8   0.0035   0.0057   0.0107  -0.0021  -0.0033  -0.0035   1.00    4.3
2025/10/15 16:35:58.000      2351.4623      5869.0902      -804.0262   1   8   0.0051   0.0058   0.0109  -0.0006  -0.0029  -0.0030   1.00    4.4
2025/10/15 16:35:59.000      2351.4642      5869.0890      -804.0288   1   8   0.0032   0.0059   0.0108  -0.0020  -0.0032  -0.0038   1.00    4.4
2025/10/15 16:36:00.000      2351.4624      5869.0921      -804.0232   1   8   0.0042   0.0059   0.0106  -0.0017  -0.0030  -0.0032   0.00    4.4
2025/10/15 16:36:01.000      2351.4635      5869.0886      -804.0240   1   8   0.0044   0.0058   0.0106  -0.0010  -0.0028  -0.0033   0.00    4.4
2025/10/15 16:36:02.000      2351.4629      5869.0885      -804.0320   1   8   0.0050   0.0062   0.0107   0.0012  -0.0032  -0.0032   1.00    4.4
2025/10/15 16:36:03.000      2351.4646      5869.0864      -804.0305   1   8   0.0040   0.0060   0.0108  -0.0020  -0.0031  -0.0035   1.00    4.4
2025/10/15 16:36:04.000      2351.4606      5869.0900      -804.0234   1   8   0.0038   0.0056   0.0107  -0.0019  -0.0029  -0.0034   0.00    4.4
2025/10/15 16:36:05.000      2351.4629      5869.0874      -804.0252   1   8   0.0039   0.0059   0.0106  -0.0005  -0.0032  -0.0036   0.00    4.4
2025/10/15 16:36:06.000      2351.4617      5869.0872      -804.0256   1   8   0.0053   0.0061   0.0107   0.0009  -0.0028  -0.0028   0.00    4.4
2025/10/15 16:36:07.000      2351.4652      5869.0817      -804.0281   1   8   0.0044   0.0060   0.0107  -0.0009  -0.0031  -0.0033   1.00    4.4
2025/10/15 16:36:08.000      2351.4635      5869.0790      -804.0296   1   8   0.0047   0.0060   0.0107  -0.0014  -0.0030  -0.0033   1.00    4.4
2025/10/15 16:36:09.000      2351.4614      5869.0842      -804.0235   1   8   0.0036   0.0057   0.0105  -0.0020  -0.0031  -0.0035   0.00    4.4
2025/10/15 16:36:10.000      2351.4600      5869.0847      -804.0208   1   8   0.0042   0.0058   0.0106  -0.0021  -0.0032  -0.0033   0.00    4.4
2025/10/15 16:36:11.000      2351.4619      5869.0827      -804.0208   1   8   0.0042   0.0058   0.0108  -0.0019  -0.0033  -0.0036   1.00    4.4
2025/10/15 16:36:12.000      2351.4641      5869.0883      -804.0252   1   8   0.0043   0.0058   0.0108  -0.0016  -0.0032  -0.0034   1.00    4.4
2025/10/15 16:36:13.000      2351.4634      5869.0854      -804.0219   1   8   0.0044   0.0058   0.0107  -0.0017  -0.0030  -0.0035   1.00    4.4
2025/10/15 16:36:14.000      2351.4604      5869.0860      -804.0155   1   8   0.0048   0.0059   0.0106  -0.0012  -0.0028  -0.0033   0.00    4.4
2025/10/15 16:36:15.000      2351.4608      5869.0859      -804.0124   1   8   0.0047   0.0056   0.0106  -0.0020  -0.0031  -0.0034   0.00    4.5
2025/10/15 16:36:16.000      2351.4620      5869.0841      -804.0168   1   8   0.0044   0.0061   0.0107  -0.0009  -0.0032  -0.0034   1.00    4.5
2025/10/15 16:36:17.000      2351.4608      5869.0851      -804.0079   1   8   0.0046   0.0060   0.0108  -0.0011  -0.0031  -0.0034   1.00    4.5
2025/10/15 16:36:18.000      2351.4584      5869.0892      -804.0125   1   8   0.0033   0.0060   0.0107  -0.0022  -0.0033  -0.0037   1.00    4.5
2025/10/15 16:36:19.000      2351.4576      5869.0938      -804.0074   1   8   0.0043   0.0057   0.0105  -0.0017  -0.0032  -0.0032   0.00    4.5
2025/10/15 16:36:20.000      2351.4566      5869.0946      -804.0060   1   8   0.0045   0.0060   0.0105  -0.0012  -0.0031  -0.0034   0.00    4.5
2025/10/15 16:36:21.000      2351.4573      5869.0914      -804.0088   1   8   0.0041   0.0058   0.0107  -0.0023  -0.0032  -0.0035   1.00    4.5
2025/10/15 16:36:22.000      2351.4571      5869.0971      -804.0034   1   8   0.0045   0.0058   0.0105  -0.0016  -0.0028  -0.0032   0.00    4.5
2025/10/15 16:36:23.000      2351.4580      5869.0977      -804.0063   1   8   0.0045   0.0059   0.0105  -0.0005  -0.0030  -0.0034   0.00    4.5
2025/10/15 16:36:24.000      2351.4604      5869.0971      -804.0084   1   8   0.0040   0.0060   0.0105  -0.0019  -0.0032  -0.0035   0.00    4.6
2025/10/15 16:36:25.000      2351.4612      5869.0956      -804.0092   1   8   0.0045   0.0058   0.0104  -0.0015  -0.0029  -0.0033   0.00    4.6
2025/10/15 16:36:26.000      2351.4636      5869.0954      -804.0135   1   8   0.0041   0.0061   0.0107  -0.0016  -0.0031  -0.0034   1.00    4.6
2025/10/15 16:36:27.000      2351.4650      5869.0939      -804.0152   1   8   0.0047   0.0059   0.0108  -0.0016  -0.0032  -0.0034   1.00    4.6
2025/10/15 16:36:28.000      2351.4619      5869.1004      -804.0130   1   8   0.0041   0.0060   0.0105  -0.0015  -0.0031  -0.0035   0.00    4.6
2025/10/15 16:36:29.000      2351.4638      5869.0983      -804.0102   1   8   0.0044   0.0059   0.0105  -0.0010  -0.0032  -0.0034   0.00    4.6
2025/10/15 16:36:30.000      2351.4651      5869.0939      -804.0172   1   8   0.0042   0.0060   0.0107  -0.0016  -0.0032  -0.0034   1.00    4.6
2025/10/15 16:36:31.000      2351.4614      5869.0995      -804.0093   1   8   0.0044   0.0057   0.0106  -0.0017  -0.0029  -0.0033   0.00    4.7
2025/10/15 16:36:32.000      2351.4633      5869.0980      -804.0151   1   8   0.0038   0.0059   0.0107  -0.0016  -0.0032  -0.0036   1.00    4.7
2025/10/15 16:36:33.000      2351.4643      5869.0963      -804.0145   1   8   0.0042   0.0059   0.0108  -0.0015  -0.0031  -0.0033   1.00    4.7
2025/10/15 16:36:34.000      2351.4634      5869.0975      -804.0182   1   8   0.0041   0.0057   0.0108  -0.0017  -0.0033  -0.0033   1.00    4.7
2025/10/15 16:36:35.000      2351.4608      5869.0948      -804.0114   1   8   0.0043   0.0058   0.0108  -0.0017  -0.0032  -0.0034   1.00    4.7
2025/10/15 16:36:36.000      2351.4615      5869.1030      -804.0069   1   8   0.0034   0.0057   0.0105  -0.0020  -0.0031  -0.0038   0.00    4.7
2025/10/15 16:36:37.000      2351.4613      5869.0967      -804.0154   1   8   0.0042   0.0059   0.0107  -0.0018  -0.0031  -0.0033   1.00    4.8
2025/10/15 16:36:38.000      2351.4625      5869.0958      -804.0062   1   8   0.0049   0.0060   0.0108  -0.0004  -0.0032  -0.0034   1.00    4.8
2025/10/15 16:36:39.000      2351.4602      5869.1014      -803.9969   1   8   0.0040   0.0058   0.0105  -0.0021  -0.0032  -0.0037   0.00    4.8
2025/10/15 16:36:40.000      2351.4627      5869.0968      -804.0027   1   8   0.0044   0.0059   0.0107  -0.0011  -0.0032  -0.0035   1.00    4.8
2025/10/15 16:36:41.000      2351.4633      5869.0991      -803.9952   1   8   0.0041   0.0058   0.0106  -0.0018  -0.0030  -0.0034   0.00    4.8
2025/10/15 16:36:42.000      2351.4643      5869.0983      -804.0060   1   8   0.0045   0.0060   0.0108  -0.0009  -0.0032  -0.0032   1.00    4.8
2025/10/15 16:36:43.000      2351.4652      5869.0954      -804.0031   1   8   0.0039   0.0058   0.0108  -0.0019  -0.0033  -0.0036   1.00    4.9
2025/10/15 16:36:44.000      2351.4652      5869.1000      -804.0028   1   8   0.0037   0.0060   0.0106  -0.0015  -0.0033  -0.0034   0.00    4.9
2025/10/15 16:36:45.000      2351.4655      5869.0985      -804.0026   1   8   0.0046   0.0060   0.0107  -0.0012  -0.0032  -0.0033   1.00    4.9
2025/10/15 16:36:46.000      2351.4674      5869.0981      -803.9981   1   8   0.0046   0.0059   0.0107   0.0002  -0.0032  -0.0033   1.00    4.9
2025/10/15 16:36:47.000      2351.4667      5869.0978      -804.0069   1   8   0.0039   0.0059   0.0107  -0.0021  -0.0032  -0.0034   1.00    4.9
2025/10/15 16:36:48.000      2351.4659      5869.0988      -804.0070   1   8   0.0041   0.0058   0.0107  -0.0016  -0.0033  -0.0035   1.00    5.0
2025/10/15 16:36:49.000      2351.4647      5869.1033      -803.9952   1   8   0.0045   0.0058   0.0105  -0.0015  -0.0032  -0.0032   0.00    5.0
2025/10/15 16:36:50.000      2351.4668      5869.0953      -803.9995   1   8   0.0035   0.0058   0.0107  -0.0017  -0.0032  -0.0037   1.00    5.0
2025/10/15 16:36:51.000      2351.4657      5869.0988      -804.0030   1   8   0.0048   0.0060   0.0107  -0.0008  -0.0033  -0.0033   1.00    5.0
2025/10/15 16:36:52.000      2351.4668      5869.0972      -804.0010   1   8   0.0039   0.0060   0.0107  -0.0016  -0.0034  -0.0036   1.00    5.0
2025/10/15 16:36:53.000      2351.4679      5869.0974      -804.0027   1   8   0.0039   0.0061   0.0107  -0.0015  -0.0032  -0.0036   1.00    5.1
2025/10/15 16:36:54.000      2351.4669      5869.0951      -804.0037   1   8   0.0046   0.0061   0.0109  -0.0010  -0.0033  -0.0034   1.00    5.1
2025/10/15 16:36:55.000      2351.4662      5869.0984      -803.9938   1   8   0.0041   0.0059   0.0105  -0.0019  -0.0032  -0.0033   0.00    5.1
2025/10/15 16:36:56.000      2351.4674      5869.0960      -803.9967   1   8   0.0041   0.0060   0.0108  -0.0015  -0.0032  -0.0036   1.00    5.1
2025/10/15 16:36:57.000      2351.4674      5869.0984      -804.0021   1   8   0.0038   0.0060   0.0107  -0.0017  -0.0033  -0.0036   1.00    5.1
2025/10/15 16:36:58.000      2351.4653      5869.0990      -803.9972   1   8   0.0046   0.0059   0.0106  -0.0014  -0.0032  -0.0029   0.00    5.1
2025/10/15 16:36:59.000      2351.4654      5869.1016      -803.9987   1   8   0.0042   0.0058   0.0106  -0.0016  -0.0031  -0.0035   0.00    5.2
2025/10/15 16:37:00.000      2351.4661      5869.1000      -803.9976   1   8   0.0042   0.0059   0.0106  -0.0019  -0.0032  -0.0034   0.00    5.2
2025/10/15 16:37:01.000      2351.4683      5869.0965      -804.0000   1   8   0.0043   0.0060   0.0108  -0.0012  -0.0032  -0.0033   1.00    5.2
2025/10/15 16:37:02.000      2351.4706      5869.0971      -804.0053   1   8   0.0042   0.0058   0.0108  -0.0019  -0.0030  -0.0033   1.00    5.2
2025/10/15 16:37:03.000      2351.4686      5869.0991      -804.0021   1   8   0.0046   0.0060   0.0108   0.0004  -0.0029  -0.0034   1.00    5.2
2025/10/15 16:37:04.000      2351.4692      5869.0949      -804.0047   1   8   0.0044   0.0061   0.0108  -0.0010  -0.0033  -0.0032   1.00    5.2
2025/10/15 16:37:05.000      2351.4690      5869.1009      -803.9934   1   8   0.0046   0.0059   0.0105  -0.0011  -0.0030  -0.0033   0.00    5.2
