% (e/n/u-baseline=WGS84,Q=1:fix,2:float,3:sbas,4:dgps,5:single,6:ppp,ns=# of satellites)
%  UTC                   e-baseline(m)  n-baseline(m)  u-baseline(m)   Q  ns   sde(m)   sdn(m)   sdu(m)  sden(m)  sdnu(m)  sdue(m) age(s)  ratio
2025/10/15 12:47:58.000      -329.2230      9111.2057       -88.1367   2  11   0.9553   1.1470   2.5469   0.4353  -0.4806   0.5811   0.00    0.0
2025/10/15 12:47:59.000      -329.2267      9111.1915       -88.1620   2  11   0.7050   0.8489   1.8747   0.3191  -0.4021   0.4157   1.00    0.0
2025/10/15 12:48:00.000      -329.2242      9111.2002       -88.1507   2  11   0.5843   0.7042   1.5515   0.2635  -0.3484   0.3401   0.00    0.0
2025/10/15 12:48:01.000      -329.2245      9111.1915       -88.1688   2  11   0.5099   0.6146   1.3519   0.2293  -0.3121   0.2943   1.00    0.0
2025/10/15 12:48:02.000      -329.2278      9111.1993       -88.1260   2  11   0.4581   0.5520   1.2126   0.2053  -0.2861   0.2626   0.00    0.0
2025/10/15 12:48:03.000      -329.2251      9111.2020       -88.1175   2  11   0.4193   0.5051   1.1080   0.1874  -0.2667   0.2389   0.00    0.0
2025/10/15 12:48:04.000      -329.2230      9111.2103       -88.0915   2  11   0.3890   0.4682   1.0255   0.1731  -0.2516   0.2203   0.00    0.0
2025/10/15 12:48:05.000      -329.2205      9111.2126       -88.0794   2  11   0.3643   0.4381   0.9582   0.1615  -0.2397   0.2050   0.00    0.0
2025/10/15 12:48:06.000      -329.2260      9111.1885       -88.1573   2  11   0.3438   0.4130   0.9018   0.1517  -0.2299   0.1922   1.00    0.0
2025/10/15 12:48:07.000      -329.2256      9111.1877       -88.1846   2  11   0.3263   0.3915   0.8535   0.1434  -0.2219   0.1812   1.00    0.0
2025/10/15 12:48:08.000      -329.2176      9111.2033       -88.1400   2  11   0.3112   0.3729   0.8114   0.1360  -0.2153   0.1715   0.00    0.0
2025/10/15 12:48:09.000      -329.2151      9111.2007       -88.1452   2  11   0.2980   0.3566   0.7743   0.1295  -0.2097   0.1630   1.00    0.0
2025/10/15 12:48:10.000      -329.3243      9111.1964       -87.8571   1  11   0.0028   0.0047   0.0094   0.0012  -0.0022   0.0022   1.00    3.8
2025/10/15 12:48:11.000      -329.3248      9111.1982       -87.8619   1  11   0.0041   0.0048   0.0093  -0.0011  -0.0023   0.0018   0.00    3.8
2025/10/15 12:48:12.000      -329.3226      9111.1979       -87.8643   1  11   0.0035   0.0044   0.0094   0.0014  -0.0024   0.0024   1.00    3.8
2025/10/15 12:48:13.000      -329.3244      9111.1976       -87.8574   1  11   0.0038   0.0047   0.0094  -0.0010  -0.0018   0.0018   0.00    3.8
2025/10/15 12:48:14.000      -329.3245      9111.1982       -87.8588   1  11   0.0034   0.0040   0.0092   0.0017  -0.0025   0.0023   0.00    3.8
2025/10/15 12:48:15.000      -329.3245      9111.1960       -87.8616   1  11   0.0029   0.0039   0.0095   0.0014  -0.0024   0.0024   1.00    3.8
2025/10/15 12:48:16.000      -329.3235      9111.2001       -87.8586   1  11   0.0038   0.0043   0.0093   0.0016  -0.0026   0.0023   0.00    3.8
2025/10/15 12:48:17.000      -329.3243      9111.1972       -87.8577   1  11   0.0030   0.0042   0.0094   0.0016  -0.0023   0.0019   1.00    3.8
2025/10/15 12:48:18.000      -329.3239      9111.1980       -87.8626   1  11   0.0031   0.0039   0.0094   0.0019  -0.0020   0.0022   1.00    3.9
2025/10/15 12:48:19.000      -329.3248      9111.2001       -87.8625   1  11   0.0034   0.0037   0.0094   0.0019  -0.0022   0.0020   0.00    3.9
2025/10/15 12:48:20.000      -329.3235      9111.1986       -87.8642   1  11   0.0033   0.0040   0.0096   0.0019  -0.0023   0.0021   1.00    4.0
2025/10/15 12:48:21.000      -329.3257      9111.1955       -87.8592   1  11   0.0035   0.0046   0.0094   0.0020  -0.0022   0.0024   1.00    4.0
2025/10/15 12:48:22.000      -329.3251      9111.1971       -87.8591   1  11   0.0033   0.0039   0.0095   0.0025  -0.0023   0.0021   1.00    4.1
2025/10/15 12:48:23.000      -329.3265      9111.1993       -87.8601   1  11   0.0033   0.0048   0.0092   0.0009  -0.0025   0.0023   0.00    4.1
2025/10/15 12:48:24.000      -329.3263      9111.2011       -87.8601   1  11   0.0035   0.0040   0.0093   0.0020  -0.0024   0.0023   0.00    4.2
2025/10/15 12:48:25.000      -329.3270      9111.2016       -87.8590   1  11   0.0038   0.0041   0.0093   0.0019  -0.0023   0.0017   0.00    4.2
2025/10/15 12:48:26.000      -329.3251      9111.2017       -87.8600   1  11   0.0034   0.0043   0.0093   0.0020  -0.0025   0.0020   0.00    4.3
2025/10/15 12:48:27.000      -329.3250      9111.1967       -87.8577   1  11   0.0034   0.0046   0.0093   0.0014  -0.0026   0.0026   1.00    4.3
2025/10/15 12:48:28.000      -329.3270      9111.2005       -87.8597   1  11   0.0039   0.0043   0.0092  -0.0006  -0.0022   0.0018   0.00    4.4
2025/10/15 12:48:29.000      -329.3275      9111.2007       -87.8601   1  11   0.0034   0.0046   0.0092   0.0018  -0.0023   0.0022   0.00    4.4
2025/10/15 12:48:30.000      -329.3246      9111.1999       -87.8570   1  11   0.0036   0.0037   0.0096   0.0009  -0.0021   0.0013   1.00    4.5
2025/10/15 12:48:31.000      -329.3246      9111.2013       -87.8611   1  11   0.0042   0.0049   0.0095  -0.0020  -0.0013   0.0011   1.00    4.6
2025/10/15 12:48:32.000      -329.3257      9111.2009       -87.8599   1  11   0.0034   0.0043   0.0095   0.0019  -0.0017   0.0019   1.00    4.6
2025/10/15 12:48:33.000      -329.3269      9111.2006       -87.8593   1  11   0.0028   0.0044   0.0094   0.0024  -0.0022   0.0028   1.00    4.7
2025/10/15 12:48:34.000      -329.3269      9111.2009       -87.8595   1  11   0.0033   0.0047   0.0095   0.0005  -0.0019   0.0022   1.00    4.7
2025/10/15 12:48:35.000      -329.3260      9111.2036       -87.8611   1  11   0.0022   0.0041   0.0093   0.0016  -0.0024   0.0021   0.00    4.8
2025/10/15 12:48:36.000      -329.3241      9111.2011       -87.8644   1  11   0.0041   0.0048   0.0096   0.0004  -0.0021   0.0018   1.00    4.8
2025/10/15 12:48:37.000      -329.3249      9111.2041       -87.8626   1  11   0.0039   0.0042   0.0096   0.0018  -0.0025   0.0021   1.00    4.9
2025/10/15 12:48:38.000      -329.3251      9111.2033       -87.8674   1  11   0.0027   0.0039   0.0092   0.0021  -0.0025   0.0022   0.00    4.9
2025/10/15 12:48:39.000      -329.3258      9111.2039       -87.8598   1  11   0.0033   0.0043   0.0093   0.0025  -0.0022   0.0021   0.00    5.0
2025/10/15 12:48:40.000      -329.3270      9111.2037       -87.8628   1  11   0.0030   0.0049   0.0093   0.0015  -0.0019   0.0022   0.00    5.0
2025/10/15 12:48:41.000      -329.3256      9111.2021       -87.8610   1  11   0.0034   0.0049   0.0093  -0.0010  -0.0019   0.0022   0.00    5.1
2025/10/15 12:48:42.000      -329.3244      9111.2005       -87.8580   1  11   0.0042   0.0050   0.0094   0.0007  -0.0017   0.0023   1.00    5.1
2025/10/15 12:48:43.000      -329.3270      9111.2005       -87.8658   1  11   0.0033   0.0050   0.0092   0.0014  -0.0023   0.0018   0.00    5.1
2025/10/15 12:48:44.000      -329.3292      9111.2008       -87.8630   1  11   0.0035   0.0044   0.0092   0.0014  -0.0021   0.0024   0.00    5.2
2025/10/15 12:48:45.000      -329.3279      9111.2028       -87.8615   1  11   0.0041   0.0047   0.0095  -0.0027  -0.0013   0.0008   0.00    5.2
2025/10/15 12:48:46.000      -329.3281      9111.2027       -87.8644   1  11   0.0034   0.0044   0.0095   0.0018  -0.0017   0.0019   0.00    5.3
2025/10/15 12:48:47.000      -329.3278      9111.2024       -87.8664   1  11   0.0038   0.0043   0.0094   0.0009  -0.0021   0.0017   0.00    5.3
2025/10/15 12:48:48.000      -329.3280      9111.2030       -87.8619   1  11   0.0034   0.0038   0.0093   0.0024  -0.0022   0.0022   0.00    5.4
2025/10/15 12:48:49.000      -329.3276      9111.2030       -87.8630   1  11   0.0036   0.0040   0.0094   0.0018  -0.0022   0.0017   0.00    5.4
2025/10/15 12:48:50.000      -329.3259      9111.2023       -87.8593   1  11   0.0032   0.0037   0.0094   0.0025  -0.0026   0.0022   1.00    5.5
2025/10/15 12:48:51.000      -329.3279      9111.2019       -87.8621   1  11   0.0031   0.0040   0.0093   0.0020  -0.0027   0.0018   0.00    5.5
2025/10/15 12:48:52.000      -329.3283      9111.2036       -87.8626   1  11   0.0019   0.0039   0.0092   0.0022  -0.0024   0.0021   0.00    5.5
2025/10/15 12:48:53.000      -329.3277      9111.2034       -87.8611   1  11   0.0039   0.0043   0.0094   0.0016  -0.0023   0.0021   1.00    5.5
2025/10/15 12:48:54.000      -329.3289      9111.2019       -87.8674   1  11   0.0026   0.0039   0.0095   0.0026  -0.0021   0.0023   1.00    5.6
2025/10/15 12:48:55.000      -329.3295      9111.2047       -87.8621   1  11   0.0024   0.0043   0.0093   0.0014  -0.0024   0.0023   0.00    5.6
2025/10/15 12:48:56.000      -329.3288      9111.2049       -87.8634   1  11   0.0030   0.0037   0.0095   0.0023  -0.0020   0.0019   1.00    5.6
2025/10/15 12:48:57.000      -329.3291      9111.2045       -87.8694   1  11   0.0033   0.0033   0.0095   0.0024  -0.0025   0.0023   1.00    5.6
2025/10/15 12:48:58.000      -329.3291      9111.2031       -87.8660   1  11   0.0033   0.0045   0.0094   0.0014  -0.0028   0.0025   1.00    5.6
2025/10/15 12:48:59.000      -329.3315      9111.2056       -87.8647   1  11   0.0041   0.0033   0.0093   0.0027  -0.0025   0.0022   0.00    5.6
2025/10/15 12:49:00.000      -329.3279      9111.2073       -87.8675   1  11   0.0030   0.0049   0.0093   0.0015  -0.0022   0.0017   0.00    5.6
2025/10/15 12:49:01.000      -329.3280      9111.2076       -87.8677   1  11   0.0029   0.0047   0.0095   0.0015  -0.0019   0.0022   1.00    5.6
2025/10/15 12:49:02.000      -329.3281      9111.2069       -87.8737   1  11   0.0039   0.0047   0.0096   0.0018  -0.0022   0.0018   1.00    5.6
2025/10/15 12:49:03.000      -329.3291      9111.2057       -87.8675   1  11   0.0024   0.0028   0.0093   0.0025  -0.0026   0.0023   0.00    5.6
2025/10/15 12:49:04.000      -329.3287      9111.2050       -87.8645   1  11   0.0032   0.0044   0.0093   0.0026  -0.0027   0.0025   0.00    5.6
2025/10/15 12:49:05.000      -329.3293      9111.2055       -87.8645   1  11   0.0032   0.0043   0.0095   0.0021  -0.0025   0.0019   0.00    5.6
2025/10/15 12:49:06.000      -329.3292      9111.2082       -87.8669   1  11   0.0048   0.0040   0.0095   0.0014  -0.0019   0.0013   1.00    5.6
2025/10/15 12:49:07.000      -329.3307      9111.2080       -87.8629   1  11   0.0040   0.0047   0.0095   0.0012  -0.0017   0.0017   1.00    5.6
2025/10/15 12:49:08.000      -329.3319      9111.2059       -87.8648   1  11   0.0037   0.0044   0.0092  -0.0013  -0.0019   0.0020   0.00    5.6
2025/10/15 12:49:09.000      -329.3310      9111.2054       -87.8675   1  11   0.0025   0.0040   0.0094   0.0018  -0.0020   0.0018   0.00    5.6
2025/10/15 12:49:10.000      -329.3319      9111.2059       -87.8636   1  11   0.0038   0.0036   0.0093  -0.0007  -0.0019   0.0009   0.00    5.5
2025/10/15 12:49:11.000      -329.3310      9111.2063       -87.8648   1  11   0.0030   0.0043   0.0094   0.0016  -0.0021   0.0022   1.00    5.5
2025/10/15 12:49:12.000      -329.3335      9111.2063       -87.8590   1  11   0.0034   0.0053   0.0094  -0.0015  -0.0022   0.0021   1.00    5.5
2025/10/15 12:49:13.000      -329.3296      9111.2067       -87.8611   1  11   0.0037   0.0034   0.0094   0.0024  -0.0021   0.0021   0.00    5.5
2025/10/15 12:49:14.000      -329.3304      9111.2041       -87.8631   1  11   0.0038   0.0046   0.0095  -0.0010  -0.0020   0.0019   1.00    5.5
2025/10/15 12:49:15.000      -329.3319      9111.2067       -87.8635   1  11   0.0038   0.0040   0.0094  -0.0012  -0.0021   0.0016   0.00    5.5
2025/10/15 12:49:16.000      -329.3319      9111.2054       -87.8662   1  11   0.0030   0.0039   0.0095   0.0024  -0.0026   0.0024   1.00    5.4
2025/10/15 12:49:17.000      -329.3334      9111.2046       -87.8632   1  11   0.0037   0.0041   0.0095   0.0015  -0.0021   0.0016   1.00    5.4
2025/10/15 12:49:18.000      -329.3331      9111.2046       -87.8643   1  11   0.0039   0.0045   0.0094  -0.0015  -0.0020   0.0011   0.00    5.4
2025/10/15 12:49:19.000      -329.3330      9111.2029       -87.8622   1  11   0.0035   0.0043   0.0095   0.0005  -0.0023   0.0023   1.00    5.3
2025/10/15 12:49:20.000      -329.3335      9111.2044       -87.8646   1  11   0.0033   0.0045   0.0094   0.0004  -0.0023   0.0017   0.00    5.3
2025/10/15 12:49:21.000      -329.3328      9111.2029       -87.8642   1  11   0.0029   0.0045   0.0096   0.0021  -0.0022   0.0020   1.00    5.3
2025/10/15 12:49:22.000      -329.3326      9111.2033       -87.8601   1  11   0.0026   0.0039   0.0094   0.0026  -0.0025   0.0026   1.00    5.2
2025/10/15 12:49:23.000      -329.3322      9111.2052       -87.8640   1  11   0.0038   0.0048   0.0092   0.0021  -0.0020   0.0021   0.00    5.2
2025/10/15 12:49:24.000      -329.3320      9111.2036       -87.8600   1  11   0.0027   0.0040   0.0095   0.0019  -0.0022   0.0022   1.00    5.2
2025/10/15 12:49:25.000      -329.3320      9111.2034       -87.8576   1  11   0.0041   0.0041   0.0096  -0.0010  -0.0020   0.0014   1.00    5.1
2025/10/15 12:49:26.000      -329.3332      9111.2052       -87.8611   1  11   0.0040   0.0046   0.0094  -0.0010  -0.0018   0.0015   0.00    5.1
2025/10/15 12:49:27.000      -329.3324      9111.2040       -87.8602   1  11   0.0042   0.0043   0.0095   0.0014  -0.0026   0.0018   1.00    5.1
2025/10/15 12:49:28.000      -329.3312      9111.2050       -87.8614   1  11   0.0031   0.0036   0.0093   0.0022  -0.0022   0.0023   0.00    5.0
2025/10/15 12:49:29.000      -329.3324      9111.2025       -87.8562   1  11   0.0038   0.0047   0.0093  -0.0016  -0.0020   0.0019   0.00    5.0
2025/10/15 12:49:30.000      -329.3312      9111.2017       -87.8583   1  11   0.0031   0.0038   0.0095   0.0018  -0.0026   0.0024   1.00    4.9
2025/10/15 12:49:31.000      -329.3298      9111.2019       -87.8538   1  11   0.0036   0.0046   0.0094   0.0018  -0.0021   0.0020   1.00    4.9
2025/10/15 12:49:32.000      -329.3323      9111.2014       -87.8552   1  11   0.0038   0.0045   0.0094   0.0016  -0.0024   0.0024   1.00    4.9
2025/10/15 12:49:33.000      -329.3323      9111.2020       -87.8480   1  11   0.0039   0.0045   0.0094   0.0018  -0.0021   0.0019   0.00    4.8
2025/10/15 12:49:34.000      -329.3323      9111.2019       -87.8497   1  11   0.0033   0.0046   0.0094  -0.0008  -0.0019   0.0014   0.00    4.8
2025/10/15 12:49:35.000      -329.3320      9111.2028       -87.8503   1  11   0.0037   0.0041   0.0093   0.0021  -0.0023   0.0021   0.00    4.8
2025/10/15 12:49:36.000      -329.3311      9111.2005       -87.8481   1  11   0.0034   0.0040   0.0095  -0.0003  -0.0024   0.0022   1.00    4.7
2025/10/15 12:49:37.000      -329.3313      9111.2033       -87.8486   1  11   0.0040   0.0044   0.0095  -0.0009  -0.0025   0.0018   0.00    4.7
2025/10/15 12:49:38.000      -329.3333      9111.2035       -87.8512   1  11   0.0032   0.0029   0.0094   0.0014  -0.0024   0.0020   0.00    4.7
2025/10/15 12:49:39.000      -329.3313      9111.2022       -87.8483   1  11   0.0041   0.0045   0.0094  -0.0008  -0.0023   0.0023   0.00    4.6
2025/10/15 12:49:40.000      -329.3309      9111.2007       -87.8479   1  11   0.0034   0.0048   0.0095   0.0004  -0.0020   0.0017   1.00    4.6
2025/10/15 12:49:41.000      -329.3278      9111.2010       -87.8515   1  11   0.0027   0.0040   0.0095   0.0012  -0.0023   0.0019   1.00    4.6
2025/10/15 12:49:42.000      -329.3305      9111.1999       -87.8533   1  11   0.0034   0.0040   0.0096  -0.0005  -0.0021   0.0018   1.00    4.5
2025/10/15 12:49:43.000      -329.3326      9111.2027       -87.8542   1  11   0.0038   0.0043   0.0094   0.0006  -0.0012   0.0012   0.00    4.5
2025/10/15 12:49:44.000      -329.3314      9111.2002       -87.8513   1  11   0.0040   0.0047   0.0096   0.0002  -0.0018   0.0017   1.00    4.5
2025/10/15 12:49:45.000      -329.3311      9111.1999       -87.8519   1  11   0.0030   0.0041   0.0094   0.0011  -0.0024   0.0016   0.00    4.4
2025/10/15 12:49:46.000      -329.3299      9111.1986       -87.8527   1  11   0.0036   0.0040   0.0095   0.0018  -0.0025   0.0021   1.00    4.4
2025/10/15 12:49:47.000      -329.3297      9111.1973       -87.8481   1  11   0.0037   0.0042   0.0096   0.0019  -0.0021   0.0015   1.00    4.4
2025/10/15 12:49:48.000      -329.3275      9111.2011       -87.8488   1  11   0.0035   0.0044   0.0094   0.0021  -0.0020   0.0025   1.00    4.4
2025/10/15 12:49:49.000      -329.3284      9111.2000       -87.8529   1  11   0.0037   0.0033   0.0094   0.0018  -0.0020   0.0019   0.00    4.4
2025/10/15 12:49:50.000      -329.3288      9111.2018       -87.8553   1  11   0.0040   0.0041   0.0094   0.0012  -0.0022   0.0012   0.00    4.3
2025/10/15 12:49:51.000      -329.3277      9111.2025       -87.8547   1  11   0.0030   0.0047   0.0092   0.0017  -0.0025   0.0021   0.00    4.3
2025/10/15 12:49:52.000      -329.3279      9111.2028       -87.8558   1  11   0.0028   0.0047   0.0094   0.0009  -0.0025   0.0023   1.00    4.3
2025/10/15 12:49:53.000      -329.3286      9111.2021       -87.8563   1  11   0.0040   0.0047   0.0093  -0.0012  -0.0018   0.0015   0.00    4.3
2025/10/15 12:49:54.000      -329.3265      9111.2028       -87.8554   1  11   0.0036   0.0037   0.0094   0.0011  -0.0022   0.0016   0.00    4.2
2025/10/15 12:49:55.000      -329.3285      9111.2019       -87.8549   1  11   0.0036   0.0044   0.0094   0.0014  -0.0021   0.0021   1.00    4.2
2025/10/15 12:49:56.000      -329.3277      9111.2008       -87.8551   1  11   0.0041   0.0041   0.0095   0.0020  -0.0018   0.0021   1.00    4.2
2025/10/15 12:49:57.000      -329.3290      9111.2003       -87.8592   1  11   0.0036   0.0040   0.0095   0.0007  -0.0022   0.0012   1.00    4.1
2025/10/15 12:49:58.000      -329.3295      9111.2013       -87.8537   1  11   0.0027   0.0040   0.0092   0.0009  -0.0025   0.0026   0.00    4.1
2025/10/15 12:49:59.000      -329.3293      9111.2001       -87.8543   1  11   0.0040   0.0045   0.0096  -0.0007  -0.0020   0.0018   1.00    4.1
2025/10/15 12:50:00.000      -329.3280      9111.1950       -87.8486   1  11   0.0046   0.0047   0.0095   0.0007  -0.0020   0.0018   1.00    4.1
2025/10/15 12:50:01.000      -329.3274      9111.1988       -87.8546   1  11   0.0035   0.0049   0.0095  -0.0010  -0.0025   0.0019   1.00    4.0
2025/10/15 12:50:02.000      -329.3276      9111.1961       -87.8500   1  11   0.0037   0.0039   0.0097   0.0019  -0.0024   0.0020   1.00    4.0
2025/10/15 12:50:03.000      -329.3273      9111.1974       -87.8499   1  11   0.0016   0.0041   0.0094   0.0026  -0.0026   0.0026   1.00    4.0
2025/10/15 12:50:04.000      -329.3291      9111.2000       -87.8548   1  11   0.0037   0.0040   0.0094   0.0015  -0.0019   0.0014   0.00    4.0
2025/10/15 12:50:05.000      -329.3294      9111.1995       -87.8577   1  11   0.0030   0.0050   0.0093  -0.0016  -0.0017   0.0020   0.00    3.9
2025/10/15 12:50:06.000      -329.3300      9111.1984       -87.8571   1  11   0.0036   0.0042   0.0093   0.0023  -0.0027   0.0023   0.00    3.9
2025/10/15 12:50:07.000      -329.3286      9111.1964       -87.8525   1  11   0.0042   0.0038   0.0094   0.0018  -0.0027   0.0020   1.00    3.9
2025/10/15 12:50:08.000      -329.3295      9111.1975       -87.8551   1  11   0.0036   0.0040   0.0095   0.0021  -0.0027   0.0023   1.00    3.9
2025/10/15 12:50:09.000      -329.3290      9111.1988       -87.8594   1  11   0.0030   0.0040   0.0094   0.0022  -0.0024   0.0021   1.00    3.8
2025/10/15 12:50:10.000      -329.3297      9111.1990       -87.8615   1  11   0.0032   0.0034   0.0094   0.0024  -0.0022   0.0017   0.00    3.8
2025/10/15 12:50:11.000      -329.3293      9111.1967       -87.8597   1  11   0.0035   0.0048   0.0097  -0.0007  -0.0021   0.0024   1.00    3.8
2025/10/15 12:50:12.000      -329.3293      9111.1956       -87.8589   1  11   0.0036   0.0042   0.0096   0.0004  -0.0022   0.0020   1.00    3.8
2025/10/15 12:50:13.000      -329.3274      9111.2000       -87.8575   1  11   0.0037   0.0037   0.0095  -0.0002  -0.0024   0.0017   0.00    3.8
2025/10/15 12:50:14.000      -329.3291      9111.1968       -87.8581   1  11   0.0041   0.0043   0.0095   0.0007  -0.0021   0.0017   1.00    3.7
2025/10/15 12:50:15.000      -329.3277      9111.1993       -87.8590   1  11   0.0033   0.0044   0.0093  -0.0011  -0.0024   0.0020   0.00    3.7
2025/10/15 12:50:16.000      -329.3291      9111.1966       -87.8550   1  11   0.0035   0.0038   0.0093   0.0016  -0.0026   0.0019   0.00    3.7
2025/10/15 12:50:17.000      -329.3306      9111.1987       -87.8561   1  11   0.0035   0.0049   0.0094   0.0013  -0.0018   0.0017   0.00    3.7
2025/10/15 12:50:18.000      -329.3285      9111.1996       -87.8554   1  11   0.0040   0.0049   0.0093   0.0010  -0.0021   0.0018   0.00    3.6
2025/10/15 12:50:19.000      -329.3295      9111.1973       -87.8557   1  11   0.0036   0.0041   0.0095   0.0012  -0.0019   0.0017   0.00    3.6
2025/10/15 12:50:20.000      -329.3296      9111.1984       -87.8527   1  11   0.0036   0.0040   0.0094   0.0019  -0.0021   0.0020   0.00    3.6
2025/10/15 12:50:21.000      -329.3281      9111.1992       -87.8581   1  11   0.0037   0.0044   0.0094   0.0010  -0.0023   0.0020   1.00    3.6
2025/10/15 12:50:22.000      -329.3281      9111.1992       -87.8532   1  11   0.0033   0.0041   0.0095   0.0014  -0.0027   0.0022   1.00    3.5
2025/10/15 12:50:23.000      -329.3295      9111.1998       -87.8543   1  11   0.0037   0.0044   0.0096   0.0007  -0.0024   0.0021   1.00    3.5
2025/10/15 12:50:24.000      -329.3290      9111.2003       -87.8546   1  11   0.0028   0.0036   0.0094   0.0025  -0.0024   0.0023   1.00    3.5
2025/10/15 12:50:25.000      -329.3294      9111.2011       -87.8544   1  11   0.0033   0.0038   0.0095   0.0012  -0.0023   0.0013   0.00    3.5
2025/10/15 12:50:26.000      -329.3298      9111.2006       -87.8583   1  11   0.0034   0.0037   0.0096   0.0014  -0.0020   0.0023   1.00    3.5
2025/10/15 12:50:27.000      -329.3299      9111.1997       -87.8532   1  11   0.0032   0.0039   0.0095   0.0019  -0.0024   0.0020   1.00    3.4
2025/10/15 12:50:28.000      -329.3308      9111.2002       -87.8531   1  11   0.0034   0.0048   0.0095   0.0016  -0.0023   0.0021   1.00    3.4
2025/10/15 12:50:29.000      -329.3309      9111.1994       -87.8501   1  11   0.0037   0.0041   0.0094  -0.0004  -0.0025   0.0019   0.00    3.4
2025/10/15 12:50:30.000      -329.3295      9111.1995       -87.8541   1  11   0.0036   0.0034   0.0096   0.0025  -0.0025   0.0020   1.00    3.4
2025/10/15 12:50:31.000      -329.3301      9111.1998       -87.8478   1  11   0.0028   0.0039   0.0095   0.0025  -0.0025   0.0025   1.00    3.4
2025/10/15 12:50:32.000      -329.3281      9111.2007       -87.8527   1  11   0.0031   0.0039   0.0095   0.0009  -0.0023   0.0019   1.00    3.4
2025/10/15 12:50:33.000      -329.3300      9111.2004       -87.8536   1  11   0.0030   0.0044   0.0093   0.0018  -0.0027   0.0026   0.00    3.3
2025/10/15 12:50:34.000      -329.3308      9111.1982       -87.8475   1  11   0.0031   0.0029   0.0094   0.0019  -0.0023   0.0019   0.00    3.3
2025/10/15 12:50:35.000      -329.3291      9111.2009       -87.8491   1  11   0.0040   0.0047   0.0095   0.0017  -0.0018   0.0015   1.00    3.3
2025/10/15 12:50:36.000      -329.3289      9111.2004       -87.8518   1  11   0.0030   0.0048   0.0095  -0.0017  -0.0023   0.0017   1.00    3.3
2025/10/15 12:50:37.000      -329.3294      9111.1994       -87.8476   1  11   0.0023   0.0048   0.0095  -0.0010  -0.0021   0.0025   1.00    3.3
2025/10/15 12:50:38.000      -329.3307      9111.1978       -87.8482   1  11   0.0042   0.0050   0.0093   0.0006  -0.0022   0.0018   0.00    3.3
2025/10/15 12:50:39.000      -329.3301      9111.1982       -87.8466   1  11   0.0032   0.0048   0.0095  -0.0011  -0.0023   0.0019   1.00    3.3
2025/10/15 12:50:40.000      -329.3316      9111.1982       -87.8485   1  11   0.0034   0.0042   0.0093   0.0024  -0.0024   0.0017   0.00    3.2
2025/10/15 12:50:41.000      -329.3306      9111.1978       -87.8493   1  11   0.0038   0.0044   0.0096   0.0004  -0.0024   0.0019   1.00    3.2
2025/10/15 12:50:42.000      -329.3308      9111.1959       -87.8468   1  11   0.0036   0.0042   0.0095   0.0014  -0.0019   0.0024   1.00    3.2
2025/10/15 12:50:43.000      -329.3318      9111.1984       -87.8453   1  11   0.0038   0.0043   0.0095   0.0017  -0.0021   0.0015   0.00    3.2
2025/10/15 12:50:44.000      -329.3317      9111.1969       -87.8471   1  11   0.0040   0.0048   0.0093  -0.0012  -0.0023   0.0018   0.00    3.2
2025/10/15 12:50:45.000      -329.3287      9111.1973       -87.8470   1  11   0.0037   0.0043   0.0094  -0.0013  -0.0023   0.0022   0.00    3.2
2025/10/15 12:50:46.000      -329.3286      9111.1970       -87.8482   1  11   0.0037   0.0041   0.0095   0.0017  -0.0021   0.0020   1.00    3.2
2025/10/15 12:50:47.000      -329.3278      9111.1987       -87.8475   1  11   0.0032   0.0044   0.0095   0.0024  -0.0027   0.0024   1.00    3.2
2025/10/15 12:50:48.000      -329.3283      9111.1972       -87.8434   1  11   0.0041   0.0050   0.0094   0.0010  -0.0019   0.0015   1.00    3.1
2025/10/15 12:50:49.000      -329.3288      9111.1996       -87.8422   1  11   0.0040   0.0040   0.0095  -0.0018  -0.0021   0.0013   0.00    3.1
2025/10/15 12:50:50.000      -329.3274      9111.1996       -87.8454   1  11   0.0035   0.0042   0.0096   0.0022  -0.0022   0.0023   1.00    3.1
2025/10/15 12:50:51.000      -329.3291      9111.1963       -87.8410   1  11   0.0027   0.0038   0.0093   0.0030  -0.0026   0.0023   0.00    3.1
2025/10/15 12:50:52.000      -329.3286      9111.1966       -87.8417   1  11   0.0038   0.0048   0.0094   0.0008  -0.0024   0.0023   0.00    3.1
2025/10/15 12:50:53.000      -329.3282      9111.1968       -87.8428   1  11   0.0040   0.0043   0.0093  -0.0014  -0.0019   0.0014   0.00    3.1
2025/10/15 12:50:54.000      -329.3288      9111.1974       -87.8415   1  11   0.0043   0.0042   0.0096   0.0010  -0.0020   0.0016   1.00    3.1
2025/10/15 12:50:55.000      -329.3293      9111.1948       -87.8396   1  11   0.0037   0.0045   0.0093   0.0013  -0.0024   0.0021   0.00    3.0
2025/10/15 12:50:56.000      -329.3284      9111.1942       -87.8411   1  11   0.0040   0.0038   0.0094   0.0013  -0.0020   0.0014   0.00    3.0
2025/10/15 12:50:57.000      -329.3273      9111.1945       -87.8406   1  11   0.0029   0.0038   0.0097  -0.0007  -0.0023   0.0019   1.00    3.0
2025/10/15 12:50:58.000      -329.3267      9111.1928       -87.8448   1  11   0.0033   0.0033   0.0095   0.0029  -0.0027   0.0024   1.00    3.0
2025/10/15 12:50:59.000      -329.3211      9111.2002       -87.8654   2  11   0.0040   0.0047   0.0101   0.0020  -0.0001   0.0022   0.00    3.0
2025/10/15 12:51:00.000      -329.3265      9111.1862       -87.8324   1  11   0.0037   0.0043   0.0094  -0.0006  -0.0020   0.0015   0.00    3.3
2025/10/15 12:51:01.000      -329.3264      9111.1882       -87.8340   1  11   0.0040   0.0040   0.0094   0.0016  -0.0021   0.0010   0.00    3.3
2025/10/15 12:51:02.000      -329.3268      9111.1846       -87.8314   1  11   0.0037   0.0051   0.0095  -0.0003  -0.0025   0.0024   1.00    3.2
2025/10/15 12:51:03.000      -329.3272      9111.1874       -87.8321   1  11   0.0029   0.0043   0.0096  -0.0011  -0.0021   0.0021   0.00    3.2
2025/10/15 12:51:04.000      -329.3268      9111.1862       -87.8308   1  11   0.0039   0.0043   0.0094   0.0018  -0.0025   0.0020   0.00    3.2
2025/10/15 12:51:05.000      -329.3251      9111.1857       -87.8306   1  11   0.0037   0.0044   0.0096   0.0018  -0.0025   0.0021   1.00    3.2
2025/10/15 12:51:06.000      -329.3255      9111.1856       -87.8329   1  11   0.0028   0.0043   0.0096   0.0023  -0.0024   0.0024   1.00    3.2
2025/10/15 12:51:07.000      -329.3248      9111.1880       -87.8316   1  11   0.0036   0.0047   0.0094   0.0016  -0.0024   0.0021   1.00    3.2
2025/10/15 12:51:08.000      -329.3249      9111.1852       -87.8268   1  11   0.0033   0.0054   0.0095  -0.0011  -0.0019   0.0022   1.00    3.1
2025/10/15 12:51:09.000      -329.3261      9111.1872       -87.8346   1  11   0.0043   0.0045   0.0097   0.0009  -0.0022   0.0020   1.00    3.1
2025/10/15 12:51:10.000      -329.3270      9111.1891       -87.8384   1  11   0.0039   0.0038   0.0094   0.0011  -0.0024   0.0014   0.00    3.1
2025/10/15 12:51:11.000      -329.3263      9111.1873       -87.8373   1  11   0.0038   0.0046   0.0094  -0.0011  -0.0025   0.0022   0.00    3.1
2025/10/15 12:51:12.000      -329.3257      9111.1834       -87.8340   1  11   0.0037   0.0043   0.0095   0.0022  -0.0024   0.0025   1.00    3.1
2025/10/15 12:51:13.000      -329.3270      9111.1866       -87.8382   1  11   0.0039   0.0045   0.0094  -0.0015  -0.0023   0.0018   0.00    3.1
2025/10/15 12:51:14.000      -329.3270      9111.1863       -87.8389   1  11   0.0043   0.0047   0.0094  -0.0005  -0.0020   0.0022   0.00    3.0
2025/10/15 12:51:15.000      -329.3274      9111.1831       -87.8385   1  11   0.0040   0.0044   0.0095   0.0018  -0.0025   0.0017   1.00    3.0
2025/10/15 12:51:16.000      -329.3283      9111.1812       -87.8392   1  11   0.0037   0.0041   0.0095   0.0010  -0.0022   0.0021   1.00    3.0
2025/10/15 12:51:17.000      -329.3281      9111.1857       -87.8360   1  11   0.0036   0.0050   0.0094  -0.0019  -0.0021   0.0021   0.00    3.0
2025/10/15 12:51:18.000      -329.3239      9111.1949       -87.8741   2  11   0.0047   0.0042   0.0102   0.0015  -0.0014   0.0018   1.00    3.0
2025/10/15 12:51:19.000      -329.3241      9111.1951       -87.8771   2  11   0.0037   0.0048   0.0102   0.0022  -0.0008   0.0021   1.00    3.0
2025/10/15 12:51:20.000      -329.3242      9111.1959       -87.8751   2  11   0.0045   0.0051   0.0103  -0.0012  -0.0015   0.0016   1.00    2.7
2025/10/15 12:51:21.000      -329.3251      9111.1977       -87.8782   2  11   0.0045   0.0043   0.0101   0.0013  -0.0009   0.0013   0.00    2.8
2025/10/15 12:51:22.000      -329.3289      9111.1840       -87.8640   1  11   0.0036   0.0037   0.0094   0.0022  -0.0019   0.0019   1.00    3.2
2025/10/15 12:51:23.000      -329.3279      9111.1855       -87.8680   1  11   0.0039   0.0045   0.0095   0.0013  -0.0019   0.0017   1.00    3.2
2025/10/15 12:51:24.000      -329.3289      9111.1898       -87.8652   1  11   0.0043   0.0031   0.0095   0.0024  -0.0024   0.0017   0.00    3.2
2025/10/15 12:51:25.000      -329.3290      9111.1895       -87.8670   1  11   0.0031   0.0033   0.0095   0.0022  -0.0026   0.0023   0.00    3.2
2025/10/15 12:51:26.000      -329.3279      9111.1845       -87.8652   1  11   0.0037   0.0046   0.0094   0.0008  -0.0022   0.0022   1.00    3.2
2025/10/15 12:51:27.000      -329.3285      9111.1825       -87.8632   1  11   0.0031   0.0038   0.0096   0.0025  -0.0023   0.0025   1.00    3.1
2025/10/15 12:51:28.000      -329.3298      9111.1857       -87.8646   1  11   0.0041   0.0045   0.0096  -0.0011  -0.0015   0.0009   1.00    3.1
2025/10/15 12:51:29.000      -329.3287      9111.1876       -87.8674   1  11   0.0037   0.0041   0.0094   0.0013  -0.0022   0.0023   0.00    3.1
2025/10/15 12:51:30.000      -329.3287      9111.1856       -87.8649   1  11   0.0010   0.0039   0.0095   0.0022  -0.0027   0.0022   1.00    3.1
2025/10/15 12:51:31.000      -329.3291      9111.1865       -87.8605   1  11   0.0035   0.0048   0.0097  -0.0007  -0.0021   0.0018   1.00    3.1
2025/10/15 12:51:32.000      -329.3287      9111.1861       -87.8657   1  11   0.0033   0.0037   0.0096   0.0005  -0.0021   0.0017   1.00    3.1
2025/10/15 12:51:33.000      -329.3291      9111.1901       -87.8646   1  11   0.0045   0.0052   0.0095  -0.0014  -0.0020   0.0020   0.00    3.1
2025/10/15 12:51:34.000      -329.3297      9111.1895       -87.8648   1  11   0.0030   0.0039   0.0095  -0.0010  -0.0024   0.0018   0.00    3.1
2025/10/15 12:51:35.000      -329.3299      9111.1888       -87.8673   1  11   0.0032   0.0039   0.0094   0.0028  -0.0024   0.0023   0.00    3.1
2025/10/15 12:51:36.000      -329.3308      9111.1897       -87.8727   1  11   0.0032   0.0042   0.0096  -0.0011  -0.0019   0.0021   1.00    3.1
2025/10/15 12:51:37.000      -329.3277      9111.1889       -87.8622   1  11   0.0030   0.0043   0.0094   0.0008  -0.0025   0.0019   0.00    3.1
2025/10/15 12:51:38.000      -329.3303      9111.1857       -87.8642   1  11   0.0036   0.0047   0.0097  -0.0010  -0.0021   0.0024   1.00    3.1
2025/10/15 12:51:39.000      -329.3284      9111.1895       -87.8666   1  11   0.0038   0.0047   0.0095  -0.0018  -0.0017   0.0013   0.00    3.0
2025/10/15 12:51:40.000      -329.3306      9111.1870       -87.8765   1  11   0.0041   0.0035   0.0096   0.0017  -0.0027   0.0022   1.00    3.0
2025/10/15 12:51:41.000      -329.3288      9111.1889       -87.8662   1  11   0.0027   0.0048   0.0094   0.0015  -0.0026   0.0019   0.00    3.0
2025/10/15 12:51:42.000      -329.3291      9111.1887       -87.8743   1  11   0.0037   0.0037   0.0096   0.0024  -0.0026   0.0021   1.00    3.0
2025/10/15 12:51:43.000      -329.3290      9111.1869       -87.8659   1  11   0.0030   0.0048   0.0093   0.0010  -0.0024   0.0024   0.00    3.0
2025/10/15 12:51:44.000      -329.3291      9111.1872       -87.8672   1  11   0.0036   0.0042   0.0093   0.0016  -0.0025   0.0020   0.00    3.0
2025/10/15 12:51:45.000      -329.3294      9111.1871       -87.8756   1  11   0.0033   0.0039   0.0096   0.0021  -0.0022   0.0022   1.00    3.0
2025/10/15 12:51:46.000      -329.3299      9111.1865       -87.8714   1  11   0.0035   0.0045   0.0096   0.0011  -0.0021   0.0021   1.00    3.0
2025/10/15 12:51:47.000      -329.3246      9111.1968       -87.8853   2  11   0.0044   0.0043   0.0103   0.0016  -0.0009   0.0018   1.00    3.0
2025/10/15 12:51:48.000      -329.3253      9111.1962       -87.8811   2  11   0.0046   0.0047   0.0102   0.0013   0.0012   0.0013   0.00    3.0
2025/10/15 12:51:49.000      -329.3241      9111.1969       -87.8841   2  11   0.0045   0.0038   0.0102   0.0026  -0.0010   0.0019   1.00    2.8
2025/10/15 12:51:50.000      -329.3239      9111.1967       -87.8823   2  11   0.0043   0.0043   0.0101  -0.0002  -0.0007   0.0021   0.00    2.5
2025/10/15 12:51:51.000      -329.3224      9111.1975       -87.8847   2  11   0.0028   0.0047   0.0102   0.0015  -0.0005   0.0025   1.00    2.8
2025/10/15 12:51:52.000      -329.3239      9111.1990       -87.8830   2  11   0.0041   0.0042   0.0102   0.0016  -0.0007   0.0021   1.00    2.6
2025/10/15 12:51:53.000      -329.3238      9111.1956       -87.8851   2  11   0.0026   0.0034   0.0104   0.0019  -0.0018   0.0027   1.00    2.6
2025/10/15 12:51:54.000      -329.3250      9111.1951       -87.8872   2  11   0.0039   0.0045   0.0103   0.0016  -0.0015   0.0021   1.00    2.7
2025/10/15 12:51:55.000      -329.3318      9111.1885       -87.8477   1  11   0.0035   0.0034   0.0095   0.0009  -0.0023   0.0013   0.00    8.9
2025/10/15 12:51:56.000      -329.3318      9111.1862       -87.8519   1  11   0.0033   0.0049   0.0096   0.0011  -0.0021   0.0023   1.00    8.9
2025/10/15 12:51:57.000      -329.3318      9111.1843       -87.8520   1  11   0.0034   0.0043   0.0096   0.0005  -0.0022   0.0022   1.00    8.9
2025/10/15 12:51:58.000      -329.3325      9111.1884       -87.8490   1  11   0.0039   0.0042   0.0095  -0.0010  -0.0018   0.0016   0.00    8.9
2025/10/15 12:51:59.000      -329.3335      9111.1885       -87.8464   1  11   0.0037   0.0043   0.0093   0.0020  -0.0024   0.0017   0.00    8.9
2025/10/15 12:52:00.000      -329.3312      9111.1900       -87.8482   1  11   0.0037   0.0043   0.0093   0.0015  -0.0022   0.0021   0.00    8.8
2025/10/15 12:52:01.000      -329.3312      9111.1887       -87.8466   1  11   0.0023   0.0040   0.0094   0.0024  -0.0021   0.0029   0.00    8.8
2025/10/15 12:52:02.000      -329.3292      9111.1879       -87.8515   1  11   0.0040   0.0040   0.0096  -0.0006  -0.0019   0.0012   1.00    8.8
2025/10/15 12:52:03.000      -329.3324      9111.1878       -87.8424   1  11   0.0039   0.0042   0.0094   0.0019  -0.0020   0.0020   0.00    8.8
2025/10/15 12:52:04.000      -329.3306      9111.1879       -87.8458   1  11   0.0033   0.0038   0.0094   0.0016  -0.0024   0.0023   0.00    8.8
2025/10/15 12:52:05.000      -329.3313      9111.1874       -87.8451   1  11   0.0037   0.0050   0.0093   0.0006  -0.0021   0.0023   0.00    8.8
2025/10/15 12:52:06.000      -329.3316      9111.1870       -87.8476   1  11   0.0032   0.0034   0.0094   0.0025  -0.0024   0.0022   0.00    8.8
2025/10/15 12:52:07.000      -329.3310      9111.1866       -87.8490   1  11   0.0030   0.0044   0.0096   0.0010  -0.0020   0.0020   1.00    8.7
2025/10/15 12:52:08.000      -329.3307      9111.1870       -87.8517   1  11   0.0044   0.0045   0.0095   0.0015  -0.0022   0.0019   1.00    8.7
2025/10/15 12:52:09.000      -329.3305      9111.1889       -87.8477   1  11   0.0029   0.0043   0.0094   0.0011  -0.0021   0.0017   0.00    8.7
2025/10/15 12:52:10.000      -329.3308      9111.1872       -87.8421   1  11   0.0038   0.0039   0.0094   0.0018  -0.0024   0.0018   0.00    8.7
2025/10/15 12:52:11.000      -329.3310      9111.1880       -87.8450   1  11   0.0034   0.0042   0.0095   0.0018  -0.0023   0.0026   1.00    8.6
2025/10/15 12:52:12.000      -329.3310      9111.1860       -87.8477   1  11   0.0042   0.0051   0.0095  -0.0016  -0.0020   0.0014   1.00    8.6
2025/10/15 12:52:13.000      -329.3309      9111.1888       -87.8471   1  11   0.0042   0.0025   0.0095   0.0019  -0.0023   0.0018   0.00    8.6
2025/10/15 12:52:14.000      -329.3329      9111.1870       -87.8436   1  11   0.0033   0.0051   0.0095   0.0023  -0.0025   0.0024   1.00    8.6
2025/10/15 12:52:15.000      -329.3328      9111.1887       -87.8433   1  11   0.0037   0.0044   0.0095   0.0010  -0.0022   0.0019   0.00    8.6
2025/10/15 12:52:16.000      -329.3320      9111.1884       -87.8471   1  11   0.0032   0.0043   0.0096   0.0019  -0.0024   0.0020   1.00    8.6
2025/10/15 12:52:17.000      -329.3344      9111.1897       -87.8441   1  11   0.0034   0.0039   0.0095   0.0008  -0.0025   0.0019   0.00    8.6
2025/10/15 12:52:18.000      -329.3321      9111.1895       -87.8432   1  11   0.0037   0.0049   0.0096  -0.0008  -0.0018   0.0013   1.00    8.6
2025/10/15 12:52:19.000      -329.3325      9111.1906       -87.8429   1  11   0.0031   0.0041   0.0093   0.0006  -0.0025   0.0021   0.00    8.5
2025/10/15 12:52:20.000      -329.3336      9111.1891       -87.8445   1  11   0.0041   0.0036   0.0094   0.0012  -0.0027   0.0019   0.00    8.5
2025/10/15 12:52:21.000      -329.3323      9111.1896       -87.8434   1  11   0.0034   0.0038   0.0094   0.0020  -0.0024   0.0018   0.00    8.5
2025/10/15 12:52:22.000      -329.3318      9111.1887       -87.8427   1  11   0.0034   0.0040   0.0095   0.0014  -0.0021   0.0018   1.00    8.5
2025/10/15 12:52:23.000      -329.3314      9111.1875       -87.8402   1  11   0.0030   0.0039   0.0096   0.0019  -0.0027   0.0025   1.00    8.5
2025/10/15 12:52:24.000      -329.3335      9111.1879       -87.8447   1  11   0.0037   0.0039   0.0094  -0.0003  -0.0022   0.0017   0.00    8.5
2025/10/15 12:52:25.000      -329.3326      9111.1902       -87.8463   1  11   0.0033   0.0043   0.0094   0.0016  -0.0023   0.0020   0.00    8.5
2025/10/15 12:52:26.000      -329.3323      9111.1883       -87.8441   1  11   0.0038   0.0038   0.0096  -0.0011  -0.0020   0.0016   1.00    8.4
2025/10/15 12:52:27.000      -329.3320      9111.1871       -87.8407   1  11   0.0040   0.0042   0.0096  -0.0004  -0.0026   0.0017   1.00    8.4
2025/10/15 12:52:28.000      -329.3320      9111.1876       -87.8472   1  11   0.0031   0.0042   0.0095   0.0017  -0.0024   0.0020   1.00    8.4
2025/10/15 12:52:29.000      -329.3327      9111.1895       -87.8475   1  11   0.0029   0.0047   0.0095   0.0015  -0.0026   0.0026   0.00    8.4
2025/10/15 12:52:30.000      -329.3315      9111.1874       -87.8486   1  11   0.0040   0.0036   0.0097   0.0022  -0.0019   0.0014   1.00    8.4
2025/10/15 12:52:31.000      -329.3320      9111.1891       -87.8475   1  11   0.0039   0.0048   0.0093   0.0008  -0.0019   0.0019   0.00    8.4
2025/10/15 12:52:32.000      -329.3322      9111.1858       -87.8430   1  11   0.0031   0.0043   0.0096   0.0013  -0.0020   0.0025   1.00    8.4
2025/10/15 12:52:33.000      -329.3340      9111.1904       -87.8451   1  11   0.0037   0.0035   0.0095   0.0018  -0.0023   0.0015   0.00    8.4
2025/10/15 12:52:34.000      -329.3333      9111.1871       -87.8455   1  11   0.0036   0.0045   0.0097   0.0005  -0.0023   0.0020   1.00    8.4
2025/10/15 12:52:35.000      -329.3324      9111.1896       -87.8452   1  11   0.0036   0.0038   0.0094   0.0011  -0.0025   0.0013   0.00    8.4
2025/10/15 12:52:36.000      -329.3321      9111.1881       -87.8426   1  11   0.0033   0.0045   0.0096   0.0015  -0.0025   0.0022   1.00    8.3
2025/10/15 12:52:37.000      -329.3313      9111.1889       -87.8448   1  11   0.0030   0.0034   0.0097   0.0018  -0.0022   0.0022   1.00    8.3
2025/10/15 12:52:38.000      -329.3330      9111.1880       -87.8434   1  11   0.0038   0.0035   0.0096   0.0017  -0.0019   0.0017   1.00    8.3
2025/10/15 12:52:39.000      -329.3306      9111.1879       -87.8418   1  11   0.0036   0.0047   0.0096   0.0001  -0.0021   0.0015   1.00    8.3
2025/10/15 12:52:40.000      -329.3312      9111.1902       -87.8446   1  11   0.0031   0.0042   0.0095   0.0024  -0.0027   0.0025   0.00    8.3
2025/10/15 12:52:41.000      -329.3316      9111.1900       -87.8483   1  11   0.0035   0.0049   0.0094   0.0010  -0.0020   0.0017   0.00    8.3
2025/10/15 12:52:42.000      -329.3308      9111.1874       -87.8437   1  11   0.0039   0.0045   0.0095   0.0020  -0.0024   0.0021   1.00    8.2
2025/10/15 12:52:43.000      -329.3301      9111.1884       -87.8421   1  11   0.0043   0.0043   0.0096  -0.0012  -0.0021   0.0011   1.00    8.2
2025/10/15 12:52:44.000      -329.3310      9111.1890       -87.8432   1  11   0.0030   0.0047   0.0093   0.0023  -0.0024   0.0026   0.00    8.2
2025/10/15 12:52:45.000      -329.3310      9111.1896       -87.8447   1  11   0.0034   0.0037   0.0096  -0.0002  -0.0024   0.0016   0.00    8.2
2025/10/15 12:52:46.000      -329.3305      9111.1888       -87.8452   1  11   0.0041   0.0043   0.0096  -0.0006  -0.0021   0.0018   0.00    8.2
2025/10/15 12:52:47.000      -329.3316      9111.1870       -87.8433   1  11   0.0035   0.0033   0.0098   0.0017  -0.0024   0.0019   1.00    8.2
2025/10/15 12:52:48.000      -329.3301      9111.1877       -87.8437   1  11   0.0042   0.0045   0.0096   0.0018  -0.0020   0.0020   1.00    8.2
2025/10/15 12:52:49.000      -329.3306      9111.1903       -87.8449   1  11   0.0039   0.0042   0.0094   0.0008  -0.0024   0.0018   0.00    8.2
2025/10/15 12:52:50.000      -329.3305      9111.1913       -87.8444   1  11   0.0038   0.0043   0.0094   0.0010  -0.0025   0.0022   0.00    8.2
2025/10/15 12:52:51.000      -329.3297      9111.1896       -87.8408   1  11   0.0032   0.0043   0.0096   0.0014  -0.0022   0.0021   1.00    8.1
2025/10/15 12:52:52.000      -329.3308      9111.1898       -87.8420   1  11   0.0038   0.0045   0.0096   0.0019  -0.0025   0.0023   1.00    8.1
2025/10/15 12:52:53.000      -329.3306      9111.1896       -87.8381   1  11   0.0034   0.0047   0.0096   0.0013  -0.0021   0.0022   1.00    8.1
2025/10/15 12:52:54.000      -329.3310      9111.1912       -87.8436   1  11   0.0030   0.0043   0.0095   0.0021  -0.0025   0.0024   0.00    8.1
2025/10/15 12:52:55.000      -329.3316      9111.1896       -87.8392   1  11   0.0031   0.0050   0.0095  -0.0010  -0.0021   0.0020   0.00    8.1
2025/10/15 12:52:56.000      -329.3310      9111.1900       -87.8421   1  11   0.0041   0.0038   0.0095   0.0024  -0.0026   0.0024   0.00    8.1
2025/10/15 12:52:57.000      -329.3311      9111.1865       -87.8388   1  11   0.0030   0.0047   0.0097   0.0019  -0.0023   0.0022   1.00    8.1
2025/10/15 12:52:58.000      -329.3315      9111.1892       -87.8379   1  11   0.0039   0.0049   0.0094  -0.0011  -0.0020   0.0020   0.00    8.1
2025/10/15 12:52:59.000      -329.3303      9111.1865       -87.8392   1  11   0.0037   0.0047   0.0096   0.0013  -0.0021   0.0021   1.00    8.1
2025/10/15 12:53:00.000      -329.3297      9111.1908       -87.8371   1  11   0.0025   0.0033   0.0094   0.0018  -0.0028   0.0023   0.00    8.0
2025/10/15 12:53:01.000      -329.3285      9111.1892       -87.8376   1  11   0.0025   0.0036   0.0095   0.0009  -0.0023   0.0021   0.00    8.0
2025/10/15 12:53:02.000      -329.3299      9111.1899       -87.8382   1  11   0.0034   0.0053   0.0094   0.0008  -0.0023   0.0020   0.00    8.0
2025/10/15 12:53:03.000      -329.3302      9111.1901       -87.8397   1  11   0.0034   0.0040   0.0095   0.0019  -0.0022   0.0020   0.00    8.0
2025/10/15 12:53:04.000      -329.3304      9111.1879       -87.8359   1  11   0.0040   0.0048   0.0096  -0.0011  -0.0019   0.0013   1.00    8.0
2025/10/15 12:53:05.000      -329.3301      9111.1919       -87.8372   1  11   0.0036   0.0047   0.0094  -0.0024  -0.0023   0.0020   0.00    8.0
2025/10/15 12:53:06.000      -329.3307      9111.1905       -87.8366   1  11   0.0032   0.0041   0.0096   0.0019  -0.0025   0.0023   1.00    8.0
2025/10/15 12:53:07.000      -329.3300      9111.1903       -87.8352   1  11   0.0033   0.0046   0.0094   0.0014  -0.0021   0.0021   0.00    8.0
2025/10/15 12:53:08.000      -329.3307      9111.1900       -87.8367   1  11   0.0019   0.0041   0.0095   0.0017  -0.0023   0.0023   0.00    8.0
2025/10/15 12:53:09.000      -329.3304      9111.1887       -87.8365   1  11   0.0039   0.0044   0.0095  -0.0013  -0.0023   0.0019   1.00    8.0
2025/10/15 12:53:10.000      -329.3306      9111.1902       -87.8363   1  11   0.0039   0.0045   0.0096  -0.0007  -0.0017   0.0011   1.00    8.0
2025/10/15 12:53:11.000      -329.3287      9111.1913       -87.8296   1  11   0.0028   0.0035   0.0094   0.0023  -0.0025   0.0021   0.00    8.0
2025/10/15 12:53:12.000      -329.3282      9111.1920       -87.8325   1  11   0.0020   0.0038   0.0097   0.0022  -0.0025   0.0022   1.00    7.9
2025/10/15 12:53:13.000      -329.3302      9111.1901       -87.8311   1  11   0.0037   0.0040   0.0095   0.0011  -0.0023   0.0017   0.00    7.9
2025/10/15 12:53:14.000      -329.3292      9111.1920       -87.8318   1  11   0.0040   0.0047   0.0095   0.0019  -0.0017   0.0023   0.00    7.9
2025/10/15 12:53:15.000      -329.3300      9111.1914       -87.8325   1  11   0.0037   0.0048   0.0095   0.0011  -0.0019   0.0018   0.00    7.9
2025/10/15 12:53:16.000      -329.3300      9111.1939       -87.8332   1  11   0.0040   0.0041   0.0093   0.0011  -0.0022   0.0015   0.00    7.9
2025/10/15 12:53:17.000      -329.3295      9111.1921       -87.8283   1  11   0.0035   0.0038   0.0095   0.0019  -0.0023   0.0017   0.00    7.9
2025/10/15 12:53:18.000      -329.3298      9111.1919       -87.8314   1  11   0.0035   0.0042   0.0096   0.0021  -0.0025   0.0020   1.00    7.9
2025/10/15 12:53:19.000      -329.3285      9111.1910       -87.8325   1  11   0.0034   0.0043   0.0095   0.0018  -0.0026   0.0020   1.00    7.8
2025/10/15 12:53:20.000      -329.3320      9111.1946       -87.8340   1  11   0.0036   0.0043   0.0095  -0.0003  -0.0024   0.0017   0.00    7.8
2025/10/15 12:53:21.000      -329.3321      9111.1944       -87.8341   1  11   0.0035   0.0039   0.0095   0.0018  -0.0021   0.0022   0.00    7.8
2025/10/15 12:53:22.000      -329.3307      9111.1944       -87.8299   1  11   0.0040   0.0047   0.0095  -0.0015  -0.0023   0.0018   0.00    7.8
2025/10/15 12:53:23.000      -329.3327      9111.1936       -87.8335   1  11   0.0034   0.0038   0.0095   0.0025  -0.0025   0.0019   0.00    7.8
2025/10/15 12:53:24.000      -329.3332      9111.1910       -87.8305   1  11   0.0026   0.0043   0.0096   0.0015  -0.0026   0.0027   1.00    7.8
2025/10/15 12:53:25.000      -329.3326      9111.1949       -87.8311   1  11   0.0032   0.0045   0.0095   0.0013  -0.0025   0.0017   0.00    7.8
2025/10/15 12:53:26.000      -329.3319      9111.1932       -87.8317   1  11   0.0038   0.0053   0.0096  -0.0006  -0.0020   0.0016   1.00    7.7
2025/10/15 12:53:27.000      -329.3322      9111.1909       -87.8256   1  11   0.0031   0.0047   0.0096   0.0012  -0.0023   0.0024   1.00    7.7
2025/10/15 12:53:28.000      -329.3318      9111.1916       -87.8307   1  11   0.0028   0.0033   0.0097   0.0014  -0.0022   0.0018   1.00    7.7
2025/10/15 12:53:29.000      -329.3326      9111.1945       -87.8242   1  11   0.0034   0.0050   0.0094  -0.0013  -0.0023   0.0022   0.00    7.7
2025/10/15 12:53:30.000      -329.3325      9111.1922       -87.8253   1  11   0.0038   0.0046   0.0096  -0.0011  -0.0025   0.0019   1.00    7.7
2025/10/15 12:53:31.000      -329.3311      9111.1951       -87.8220   1  11   0.0040   0.0045   0.0096   0.0006  -0.0022   0.0017   0.00    7.7
2025/10/15 12:53:32.000      -329.3302      9111.1940       -87.8244   1  11   0.0036   0.0041   0.0096  -0.0013  -0.0022   0.0019   1.00    7.7
2025/10/15 12:53:33.000      -329.3297      9111.1968       -87.8238   1  11   0.0043   0.0043   0.0095   0.0004  -0.0022   0.0020   0.00    7.7
2025/10/15 12:53:34.000      -329.3303      9111.1979       -87.8245   1  11   0.0029   0.0029   0.0095   0.0024  -0.0023   0.0021   0.00    7.7
2025/10/15 12:53:35.000      -329.3302      9111.1961       -87.8210   1  11   0.0032   0.0046   0.0096   0.0013  -0.0023   0.0022   1.00    7.7
2025/10/15 12:53:36.000      -329.3299      9111.1947       -87.8174   1  11   0.0039   0.0040   0.0096   0.0006  -0.0023   0.0016   1.00    7.6
2025/10/15 12:53:37.000      -329.3323      9111.1969       -87.8236   1  11   0.0033   0.0046   0.0095   0.0015  -0.0025   0.0019   0.00    7.6
2025/10/15 12:53:38.000      -329.3304      9111.1978       -87.8199   1  11   0.0041   0.0046   0.0095   0.0004  -0.0016   0.0019   0.00    7.6
2025/10/15 12:53:39.000      -329.3289      9111.1969       -87.8199   1  11   0.0035   0.0035   0.0096   0.0024  -0.0023   0.0019   1.00    7.6
2025/10/15 12:53:40.000      -329.3298      9111.1986       -87.8259   1  11   0.0039   0.0047   0.0095  -0.0010  -0.0019   0.0013   0.00    7.6
2025/10/15 12:53:41.000      -329.3305      9111.1987       -87.8243   1  11   0.0038   0.0032   0.0096   0.0012  -0.0021   0.0016   0.00    7.6
2025/10/15 12:53:42.000      -329.3301      9111.1942       -87.8225   1  11   0.0035   0.0045   0.0096   0.0008  -0.0024   0.0025   1.00    7.6
2025/10/15 12:53:43.000      -329.3319      9111.1987       -87.8238   1  11   0.0035   0.0046   0.0095  -0.0012  -0.0021   0.0013   0.00    7.6
2025/10/15 12:53:44.000      -329.3314      9111.1988       -87.8257   1  11   0.0030   0.0036   0.0095   0.0018  -0.0024   0.0021   0.00    7.6
2025/10/15 12:53:45.000      -329.3325      9111.1974       -87.8275   1  11   0.0038   0.0044   0.0094  -0.0016  -0.0020   0.0016   0.00    7.5
2025/10/15 12:53:46.000      -329.3314      9111.1990       -87.8294   1  11   0.0032   0.0038   0.0094   0.0024  -0.0023   0.0023   0.00    7.5
2025/10/15 12:53:47.000      -329.3315      9111.1966       -87.8291   1  11   0.0037   0.0048   0.0095   0.0008  -0.0022   0.0022   1.00    7.5
2025/10/15 12:53:48.000      -329.3326      9111.1991       -87.8291   1  11   0.0039   0.0044   0.0095   0.0020  -0.0024   0.0024   0.00    7.5
2025/10/15 12:53:49.000      -329.3295      9111.1981       -87.8299   1  11   0.0031   0.0042   0.0096  -0.0005  -0.0022   0.0025   1.00    7.5
2025/10/15 12:53:50.000      -329.3324      9111.1984       -87.8288   1  11   0.0030   0.0040   0.0095   0.0016  -0.0028   0.0025   0.00    7.5
2025/10/15 12:53:51.000      -329.3327      9111.1988       -87.8247   1  11   0.0031   0.0037   0.0095   0.0016  -0.0026   0.0024   0.00    7.5
2025/10/15 12:53:52.000      -329.3312      9111.1983       -87.8206   1  11   0.0035   0.0036   0.0097   0.0027  -0.0024   0.0020   1.00    7.5
2025/10/15 12:53:53.000      -329.3308      9111.2011       -87.8262   1  11   0.0035   0.0043   0.0095   0.0012  -0.0029   0.0022   0.00    7.5
2025/10/15 12:53:54.000      -329.3292      9111.1975       -87.8228   1  11   0.0035   0.0041   0.0097   0.0017  -0.0024   0.0023   1.00    7.5
2025/10/15 12:53:55.000      -329.3322      9111.1996       -87.8266   1  11   0.0033   0.0055   0.0095  -0.0022  -0.0021   0.0020   0.00    7.5
2025/10/15 12:53:56.000      -329.3308      9111.1969       -87.8237   1  11   0.0037   0.0043   0.0097   0.0014  -0.0020   0.0024   1.00    7.5
2025/10/15 12:53:57.000      -329.3299      9111.1997       -87.8269   1  11   0.0038   0.0042   0.0097   0.0026  -0.0024   0.0025   1.00    7.5
2025/10/15 12:53:58.000      -329.3304      9111.1999       -87.8292   1  11   0.0038   0.0041   0.0095  -0.0018  -0.0022   0.0016   0.00    7.5
2025/10/15 12:53:59.000      -329.3311      9111.2000       -87.8269   1  11   0.0033   0.0045   0.0094  -0.0017  -0.0026   0.0017   0.00    7.5
2025/10/15 12:54:00.000      -329.3299      9111.2003       -87.8255   1  11   0.0013   0.0039   0.0095   0.0004  -0.0025   0.0021   0.00    7.5
2025/10/15 12:54:01.000      -329.3317      9111.2008       -87.8270   1  11   0.0042   0.0042   0.0096   0.0014  -0.0021   0.0017   0.00    7.5
2025/10/15 12:54:02.000      -329.3296      9111.1989       -87.8259   1  11   0.0030   0.0033   0.0097   0.0027  -0.0025   0.0022   1.00    7.5
2025/10/15 12:54:03.000      -329.3304      9111.1978       -87.8255   1  11   0.0039   0.0041   0.0098   0.0015  -0.0023   0.0018   1.00    7.5
2025/10/15 12:54:04.000      -329.3305      9111.2002       -87.8282   1  11   0.0029   0.0031   0.0095   0.0019  -0.0021   0.0021   0.00    7.5
2025/10/15 12:54:05.000      -329.3317      9111.2009       -87.8252   1  11   0.0033   0.0047   0.0094   0.0012  -0.0024   0.0027   0.00    7.5
2025/10/15 12:54:06.000      -329.3308      9111.1992       -87.8244   1  11   0.0033   0.0035   0.0096   0.0021  -0.0022   0.0019   1.00    7.5
2025/10/15 12:54:07.000      -329.3319      9111.2026       -87.8273   1  11   0.0031   0.0044   0.0094   0.0013  -0.0026   0.0024   0.00    7.5
2025/10/15 12:54:08.000      -329.3296      9111.2014       -87.8246   1  11   0.0043   0.0047   0.0095   0.0017  -0.0019   0.0017   0.00    7.5
2025/10/15 12:54:09.000      -329.3297      9111.1995       -87.8260   1  11   0.0042   0.0045   0.0098  -0.0015  -0.0025   0.0013   1.00    7.5
2025/10/15 12:54:10.000      -329.3303      9111.2003       -87.8246   1  11   0.0032   0.0054   0.0096  -0.0010  -0.0024   0.0018   1.00    7.5
2025/10/15 12:54:11.000      -329.3308      9111.2005       -87.8282   1  11   0.0030   0.0046   0.0094   0.0007  -0.0023   0.0021   0.00    7.5
2025/10/15 12:54:12.000      -329.3304      9111.1985       -87.8294   1  11   0.0035   0.0041   0.0098  -0.0013  -0.0022   0.0016   1.00    7.5
2025/10/15 12:54:13.000      -329.3307      9111.2011       -87.8258   1  11   0.0038   0.0046   0.0096  -0.0012  -0.0021   0.0014   0.00    7.5
2025/10/15 12:54:14.000      -329.3302      9111.1999       -87.8246   1  11   0.0036   0.0037   0.0093   0.0021  -0.0027   0.0023   0.00    7.5
2025/10/15 12:54:15.000      -329.3298      9111.1990       -87.8242   1  11   0.0032   0.0047   0.0097  -0.0018  -0.0021   0.0018   1.00    7.5
2025/10/15 12:54:16.000      -329.3303      9111.2005       -87.8265   1  11   0.0029   0.0043   0.0096   0.0009  -0.0020   0.0022   0.00    7.5
2025/10/15 12:54:17.000      -329.3307      9111.2004       -87.8280   1  11   0.0038   0.0047   0.0097  -0.0012  -0.0021   0.0019   1.00    7.5
2025/10/15 12:54:18.000      -329.3300      9111.2032       -87.8304   1  11   0.0035   0.0043   0.0096   0.0005  -0.0021   0.0026   1.00    7.5
2025/10/15 12:54:19.000      -329.3303      9111.1987       -87.8304   1  11   0.0038   0.0041   0.0097   0.0014  -0.0020   0.0021   1.00    7.5
2025/10/15 12:54:20.000      -329.3298      9111.1997       -87.8234   1  11   0.0026   0.0045   0.0094   0.0012  -0.0020   0.0024   0.00    7.5
2025/10/15 12:54:21.000      -329.3311      9111.1991       -87.8262   1  11   0.0042   0.0045   0.0095   0.0013  -0.0018   0.0015   0.00    7.5
2025/10/15 12:54:22.000      -329.3320      9111.2008       -87.8304   1  11   0.0035   0.0049   0.0097   0.0007  -0.0020   0.0022   1.00    7.5
2025/10/15 12:54:23.000      -329.3310      9111.2008       -87.8274   1  11   0.0031   0.0040   0.0096   0.0018  -0.0026   0.0022   0.00    7.5
2025/10/15 12:54:24.000      -329.3307      9111.2007       -87.8286   1  11   0.0040   0.0046   0.0096   0.0014  -0.0023   0.0024   1.00    7.5
2025/10/15 12:54:25.000      -329.3300      9111.2009       -87.8298   1  11   0.0038   0.0045   0.0097  -0.0004  -0.0021   0.0021   1.00    7.5
2025/10/15 12:54:26.000      -329.3311      9111.2001       -87.8293   1  11   0.0041   0.0040   0.0095   0.0016  -0.0024   0.0018   0.00    7.5
2025/10/15 12:54:27.000      -329.3295      9111.2002       -87.8261   1  11   0.0039   0.0038   0.0097   0.0026  -0.0026   0.0021   1.00    7.5
2025/10/15 12:54:28.000      -329.3301      9111.2007       -87.8286   1  11   0.0035   0.0044   0.0095  -0.0004  -0.0025   0.0024   0.00    7.5
2025/10/15 12:54:29.000      -329.3299      9111.1998       -87.8299   1  11   0.0030   0.0043   0.0096   0.0004  -0.0025   0.0025   1.00    7.5
2025/10/15 12:54:30.000      -329.3301      9111.1992       -87.8206   1  11   0.0042   0.0043   0.0095   0.0024  -0.0020   0.0012   0.00    7.5
2025/10/15 12:54:31.000      -329.3286      9111.2010       -87.8210   1  11   0.0042   0.0045   0.0095  -0.0009  -0.0018   0.0016   0.00    7.5
2025/10/15 12:54:32.000      -329.3283      9111.2002       -87.8187   1  11   0.0037   0.0037   0.0097   0.0022  -0.0023   0.0022   1.00    7.5
2025/10/15 12:54:33.000      -329.3310      9111.2006       -87.8217   1  11   0.0037   0.0044   0.0096  -0.0014  -0.0025   0.0020   0.00    7.5
2025/10/15 12:54:34.000      -329.3293      9111.2004       -87.8246   1  11   0.0036   0.0045   0.0097   0.0009  -0.0023   0.0022   1.00    7.5
2025/10/15 12:54:35.000      -329.3280      9111.2001       -87.8281   1  11   0.0039   0.0046   0.0098  -0.0007  -0.0025   0.0021   1.00    7.5
2025/10/15 12:54:36.000      -329.3286      9111.1997       -87.8285   1  11   0.0032   0.0041   0.0097   0.0013  -0.0026   0.0023   1.00    7.5
2025/10/15 12:54:37.000      -329.3265      9111.2000       -87.8236   1  11   0.0030   0.0041   0.0097   0.0004  -0.0023   0.0022   1.00    7.5
2025/10/15 12:54:38.000      -329.3276      9111.1996       -87.8263   1  11   0.0032   0.0046   0.0097   0.0004  -0.0026   0.0020   1.00    7.5
2025/10/15 12:54:39.000      -329.3281      9111.1985       -87.8223   1  11   0.0039   0.0042   0.0096   0.0021  -0.0019   0.0017   0.00    7.5
2025/10/15 12:54:40.000      -329.3273      9111.1985       -87.8263   1  11   0.0040   0.0046   0.0097  -0.0016  -0.0018   0.0016   1.00    7.5
2025/10/15 12:54:41.000      -329.3266      9111.1986       -87.8289   1  11   0.0039   0.0040   0.0096   0.0020  -0.0024   0.0022   1.00    7.5
2025/10/15 12:54:42.000      -329.3283      9111.1958       -87.8223   1  11   0.0035   0.0045   0.0096   0.0017  -0.0025   0.0022   1.00    7.5
2025/10/15 12:54:43.000      -329.3278      9111.1985       -87.8242   1  11   0.0034   0.0037   0.0097   0.0017  -0.0025   0.0023   1.00    7.5
2025/10/15 12:54:44.000      -329.3290      9111.1957       -87.8289   1  11   0.0033   0.0051   0.0097   0.0015  -0.0019   0.0021   1.00    7.5
2025/10/15 12:54:45.000      -329.3278      9111.1993       -87.8240   1  11   0.0032   0.0037   0.0095   0.0021  -0.0024   0.0025   0.00    7.5
2025/10/15 12:54:46.000      -329.3275      9111.1974       -87.8240   1  11   0.0036   0.0040   0.0095   0.0010  -0.0020   0.0017   0.00    7.5
