% (e/n/u-baseline=WGS84,Q=1:fix,2:float,3:sbas,4:dgps,5:single,6:ppp,ns=# of satellites)
%  UTC                   e-baseline(m)  n-baseline(m)  u-baseline(m)   Q  ns   sde(m)   sdn(m)   sdu(m)  sden(m)  sdnu(m)  sdue(m) age(s)  ratio
2025/10/15 12:49:02.000      7202.6496      3125.0923        19.9064   2  10   0.9748   1.2164   2.7446   0.5112  -0.8050   0.3892   0.00    0.0
2025/10/15 12:49:03.000      7202.6484      3125.0857        19.8862   2  10   0.7169   0.8939   2.0091   0.3670  -0.6041   0.2898   0.00    0.0
2025/10/15 12:49:04.000      7202.6511      3125.0695        19.8500   2  10   0.5935   0.7396   1.6594   0.3008  -0.5047   0.2405   0.00    0.0
2025/10/15 12:49:05.000      7202.6491      3125.0576        19.7868   2  10   0.5175   0.6446   1.4445   0.2607  -0.4431   0.2096   1.00    0.0
2025/10/15 12:49:06.000      7202.6503      3125.0658        19.8181   2  10   0.4648   0.5785   1.2949   0.2330  -0.4005   0.1876   0.00    0.0
2025/10/15 12:49:07.000      7202.6556      3125.0829        19.8475   2  10   0.4254   0.5291   1.1829   0.2123  -0.3689   0.1709   1.00    0.0
2025/10/15 12:49:08.000      7202.6576      3125.0761        19.8388   2  10   0.3945   0.4903   1.0948   0.1961  -0.3445   0.1574   0.00    0.0
2025/10/15 12:49:09.000      7202.6590      3125.0700        19.7892   2  10   0.3694   0.4587   1.0230   0.1830  -0.3250   0.1463   1.00    0.0
2025/10/15 12:49:10.000      7202.6578      3125.0678        19.7721   2  10   0.3486   0.4323   0.9627   0.1719  -0.3091   0.1368   0.00    0.0
2025/10/15 12:49:11.000      7202.6603      3125.0696        19.7939   2  10   0.3308   0.4099   0.9113   0.1625  -0.2959   0.1284   0.00    0.0
2025/10/15 12:49:12.000      7202.6616      3125.0787        19.8588   2  10   0.3155   0.3904   0.8665   0.1543  -0.2847   0.1210   0.00    0.0
2025/10/15 12:49:13.000      7202.6621      3125.0698        19.8412   2  10   0.3021   0.3733   0.8272   0.1471  -0.2750   0.1144   1.00    0.0
2025/10/15 12:49:14.000      7202.6613      3125.0692        19.7912   2  10   0.2902   0.3582   0.7921   0.1407  -0.2666   0.1084   1.00    0.0
2025/10/15 12:49:15.000      7202.6633      3125.0813        19.7793   2  10   0.2796   0.3446   0.7605   0.1348  -0.2593   0.1029   1.00    0.0
2025/10/15 12:49:16.000      7202.6661      3125.0761        19.7978   2  10   0.2700   0.3323   0.7317   0.1295  -0.2529   0.0977   0.00    2.0
2025/10/15 12:49:17.000      7202.6747      3125.0770        19.7782   2  10   0.2613   0.3211   0.7056   0.1247  -0.2471   0.0929   1.00    1.4
2025/10/15 12:49:18.000      7202.6833      3125.0995        19.7818   2  10   0.2534   0.3109   0.6815   0.1203  -0.2420   0.0884   1.00    1.4
2025/10/15 12:49:19.000      7202.6911      3125.1098        19.7903   2  10   0.2461   0.3014   0.6592   0.1162  -0.2374   0.0842   1.00    1.7
2025/10/15 12:49:20.000      7202.6921      3125.1187        19.8500   2  10   0.2394   0.2927   0.6384   0.1123  -0.2333   0.0801   0.00    1.8
2025/10/15 12:49:21.000      7202.6239      3125.1064        19.7310   1  10   0.0037   0.0039   0.0100   0.0017  -0.0031   0.0009   0.00    3.1
2025/10/15 12:49:22.000      7202.6233      3125.1052        19.7294   1  10   0.0043   0.0045   0.0101  -0.0002  -0.0029   0.0014   1.00    3.2
2025/10/15 12:49:23.000      7202.6224      3125.1023        19.7372   1  10   0.0037   0.0044   0.0101   0.0011  -0.0031   0.0015   1.00    3.1
2025/10/15 12:49:24.000      7202.6205      3125.1043        19.7331   1  10   0.0037   0.0045   0.0099   0.0024  -0.0033   0.0023   0.00    3.1
2025/10/15 12:49:25.000      7202.6205      3125.1027        19.7333   1  10   0.0033   0.0044   0.0101   0.0026  -0.0033   0.0023   1.00    3.1
2025/10/15 12:49:26.000      7202.6201      3125.1058        19.7344   1  10   0.0028   0.0031   0.0100   0.0032  -0.0034   0.0018   0.00    3.2
2025/10/15 12:49:27.000      7202.6214      3125.1026        19.7332   1  10   0.0040   0.0047   0.0101  -0.0003  -0.0030   0.0011   1.00    3.2
2025/10/15 12:49:28.000      7202.6220      3125.1034        19.7316   1  10   0.0039   0.0048   0.0101  -0.0006  -0.0030   0.0014   1.00    3.2
2025/10/15 12:49:29.000      7202.6212      3125.1006        19.7389   1  10   0.0033   0.0045   0.0101   0.0022  -0.0032   0.0019   1.00    3.2
2025/10/15 12:49:30.000      7202.6228      3125.1037        19.7392   1  10   0.0034   0.0049   0.0099   0.0019  -0.0030   0.0018   0.00    3.1
2025/10/15 12:49:31.000      7202.6199      3125.1013        19.7379   1  10   0.0032   0.0046   0.0099   0.0018  -0.0030   0.0012   0.00    8.3
2025/10/15 12:49:32.000      7202.6210      3125.0988        19.7433   1  10   0.0036   0.0038   0.0101   0.0024  -0.0032   0.0015   1.00    8.7
2025/10/15 12:49:33.000      7202.6214      3125.1035        19.7403   1  10   0.0036   0.0046   0.0099   0.0016  -0.0030   0.0012   0.00    8.8
2025/10/15 12:49:34.000      7202.6226      3125.0993        19.7401   1  10   0.0033   0.0046   0.0101   0.0016  -0.0031   0.0020   1.00    8.8
2025/10/15 12:49:35.000      7202.6247      3125.1004        19.7398   1  10   0.0032   0.0044   0.0101   0.0018  -0.0030   0.0017   1.00    8.7
2025/10/15 12:49:36.000      7202.6214      3125.0977        19.7366   1  10   0.0035   0.0049   0.0100   0.0009  -0.0032   0.0019   1.00    8.7
2025/10/15 12:49:37.000      7202.6307      3125.0976        19.7588   1  10   0.0040   0.0042   0.0100   0.0018  -0.0030   0.0011   0.00    4.1
2025/10/15 12:49:38.000      7202.6317      3125.0992        19.7642   1  10   0.0037   0.0044   0.0099   0.0009  -0.0028   0.0007   0.00    4.1
2025/10/15 12:49:39.000      7202.6299      3125.0978        19.7587   1  10   0.0037   0.0047   0.0099   0.0008  -0.0032   0.0013   0.00    4.1
2025/10/15 12:49:40.000      7202.6311      3125.0952        19.7609   1  10   0.0037   0.0039   0.0100   0.0019  -0.0033   0.0012   1.00    4.1
2025/10/15 12:49:41.000      7202.6293      3125.0958        19.7579   1  10   0.0039   0.0049   0.0099   0.0009  -0.0028   0.0013   0.00    4.1
2025/10/15 12:49:42.000      7202.6280      3125.0953        19.7537   1  10   0.0032   0.0044   0.0100   0.0020  -0.0032   0.0020   0.00    4.0
2025/10/15 12:49:43.000      7202.6304      3125.0978        19.7513   1  10   0.0039   0.0050   0.0099   0.0022  -0.0032   0.0010   0.00    4.0
2025/10/15 12:49:44.000      7202.6287      3125.0919        19.7605   1  10   0.0035   0.0046   0.0100   0.0018  -0.0028   0.0012   0.00    4.0
2025/10/15 12:49:45.000      7202.6312      3125.0912        19.7588   1  10   0.0040   0.0040   0.0100   0.0021  -0.0031   0.0013   1.00    4.0
2025/10/15 12:49:46.000      7202.6287      3125.0974        19.7540   1  10   0.0040   0.0045   0.0098   0.0014  -0.0028  -0.0006   0.00    4.0
2025/10/15 12:49:47.000      7202.6299      3125.0946        19.7614   1  10   0.0036   0.0047   0.0099   0.0010  -0.0028  -0.0004   0.00    4.0
2025/10/15 12:49:48.000      7202.6299      3125.0933        19.7644   1  10   0.0039   0.0036   0.0101   0.0019  -0.0033   0.0016   1.00    4.0
2025/10/15 12:49:49.000      7202.6313      3125.0961        19.7588   1  10   0.0029   0.0034   0.0101   0.0031  -0.0032   0.0024   1.00    4.0
2025/10/15 12:49:50.000      7202.6292      3125.0943        19.7572   1  10   0.0039   0.0044   0.0099   0.0003  -0.0029   0.0012   0.00    4.0
2025/10/15 12:49:51.000      7202.6295      3125.0933        19.7532   1  10   0.0033   0.0036   0.0099   0.0016  -0.0031   0.0015   0.00    4.0
2025/10/15 12:49:52.000      7202.6295      3125.0939        19.7522   1  10   0.0037   0.0042   0.0101   0.0021  -0.0033   0.0018   1.00    4.0
2025/10/15 12:49:53.000      7202.6273      3125.0924        19.7602   1  10   0.0040   0.0043   0.0102   0.0013  -0.0029   0.0009   1.00    4.0
2025/10/15 12:49:54.000      7202.6276      3125.0952        19.7562   1  10   0.0041   0.0045   0.0099  -0.0014  -0.0028   0.0003   0.00    4.0
2025/10/15 12:49:55.000      7202.6295      3125.0942        19.7618   1  10   0.0033   0.0042   0.0099   0.0024  -0.0032   0.0019   0.00    4.0
2025/10/15 12:49:56.000      7202.6293      3125.0913        19.7627   1  10   0.0032   0.0044   0.0098   0.0016  -0.0031   0.0021   0.00    4.0
2025/10/15 12:49:57.000      7202.6268      3125.0903        19.7614   1  10   0.0036   0.0037   0.0100   0.0013  -0.0032   0.0011   0.00    4.0
2025/10/15 12:49:58.000      7202.6278      3125.0926        19.7537   1  10   0.0036   0.0049   0.0099   0.0003  -0.0030   0.0015   0.00    4.0
2025/10/15 12:49:59.000      7202.6251      3125.0895        19.7604   1  10   0.0029   0.0045   0.0099   0.0020  -0.0032   0.0018   0.00    4.0
2025/10/15 12:50:00.000      7202.6283      3125.0907        19.7610   1  10   0.0038   0.0045   0.0099   0.0003  -0.0030   0.0008   0.00    4.0
2025/10/15 12:50:01.000      7202.6278      3125.0903        19.7628   1  10   0.0030   0.0041   0.0099   0.0017  -0.0030   0.0012   0.00    4.0
2025/10/15 12:50:02.000      7202.6294      3125.0888        19.7679   1  10   0.0038   0.0051   0.0100  -0.0010  -0.0030   0.0013   1.00    4.0
2025/10/15 12:50:03.000      7202.6276      3125.0904        19.7614   1  10   0.0034   0.0045   0.0101   0.0023  -0.0029   0.0017   1.00    4.0
2025/10/15 12:50:04.000      7202.6276      3125.0898        19.7617   1  10   0.0030   0.0045   0.0099   0.0020  -0.0030   0.0016   0.00    4.0
2025/10/15 12:50:05.000      7202.6274      3125.0903        19.7607   1  10   0.0032   0.0044   0.0101   0.0026  -0.0029   0.0015   1.00    3.9
2025/10/15 12:50:06.000      7202.6256      3125.0902        19.7644   1  10   0.0038   0.0042   0.0099   0.0020  -0.0031   0.0001   0.00    3.9
2025/10/15 12:50:07.000      7202.6269      3125.0882        19.7716   1  10   0.0027   0.0042   0.0102   0.0005  -0.0029   0.0014   1.00    3.9
2025/10/15 12:50:08.000      7202.6275      3125.0918        19.7663   1  10   0.0031   0.0032   0.0099   0.0015  -0.0032   0.0013   0.00    3.9
2025/10/15 12:50:09.000      7202.6281      3125.0901        19.7688   1  10   0.0037   0.0035   0.0101   0.0020  -0.0031   0.0008   1.00    3.9
2025/10/15 12:50:10.000      7202.6281      3125.0915        19.7653   1  10   0.0038   0.0050   0.0101   0.0020  -0.0031   0.0020   1.00    3.9
2025/10/15 12:50:11.000      7202.6305      3125.0916        19.7597   1  10   0.0032   0.0036   0.0100   0.0021  -0.0032   0.0017   0.00    3.9
2025/10/15 12:50:12.000      7202.6274      3125.0893        19.7622   1  10   0.0030   0.0049   0.0099   0.0027  -0.0032   0.0020   0.00    3.9
2025/10/15 12:50:13.000      7202.6286      3125.0932        19.7636   1  10   0.0040   0.0044   0.0098   0.0027  -0.0032   0.0014   0.00    3.9
2025/10/15 12:50:14.000      7202.6279      3125.0907        19.7615   1  10   0.0032   0.0044   0.0101   0.0018  -0.0033   0.0019   1.00    3.9
2025/10/15 12:50:15.000      7202.6278      3125.0920        19.7647   1  10   0.0037   0.0051   0.0099  -0.0016  -0.0028   0.0008   0.00    3.9
2025/10/15 12:50:16.000      7202.6276      3125.0906        19.7652   1  10   0.0028   0.0046   0.0098   0.0025  -0.0031   0.0018   0.00    3.9
2025/10/15 12:50:17.000      7202.6265      3125.0902        19.7681   1  10   0.0029   0.0046   0.0099   0.0017  -0.0028   0.0016   0.00    3.9
2025/10/15 12:50:18.000      7202.6289      3125.0921        19.7658   1  10   0.0019   0.0045   0.0099   0.0024  -0.0029   0.0019   0.00    3.9
2025/10/15 12:50:19.000      7202.6295      3125.0909        19.7667   1  10   0.0035   0.0048   0.0098   0.0013  -0.0029   0.0011   0.00    3.9
2025/10/15 12:50:20.000      7202.6309      3125.0914        19.7640   1  10   0.0029   0.0047   0.0102   0.0021  -0.0032   0.0018   1.00    3.9
2025/10/15 12:50:21.000      7202.6284      3125.0900        19.7611   1  10   0.0034   0.0040   0.0099   0.0012  -0.0032   0.0018   0.00    3.9
2025/10/15 12:50:22.000      7202.6285      3125.0894        19.7631   1  10   0.0034   0.0047   0.0100  -0.0012  -0.0032   0.0016   1.00    3.9
2025/10/15 12:50:23.000      7202.6305      3125.0906        19.7644   1  10   0.0037   0.0052   0.0102  -0.0013  -0.0028   0.0017   1.00    3.9
2025/10/15 12:50:24.000      7202.6310      3125.0914        19.7630   1  10   0.0025   0.0035   0.0100   0.0028  -0.0034   0.0020   1.00    3.9
2025/10/15 12:50:25.000      7202.6287      3125.0908        19.7679   1  10   0.0037   0.0048   0.0098  -0.0013  -0.0029   0.0009   0.00    3.9
2025/10/15 12:50:26.000      7202.6288      3125.0894        19.7644   1  10   0.0044   0.0045   0.0100   0.0011  -0.0029   0.0009   0.00    4.0
2025/10/15 12:50:27.000      7202.6283      3125.0898        19.7631   1  10   0.0036   0.0050   0.0100   0.0009  -0.0030   0.0017   0.00    4.0
2025/10/15 12:50:28.000      7202.6301      3125.0884        19.7661   1  10   0.0033   0.0046   0.0100   0.0020  -0.0032   0.0018   0.00    4.0
2025/10/15 12:50:29.000      7202.6296      3125.0874        19.7615   1  10   0.0032   0.0045   0.0101   0.0017  -0.0034   0.0019   1.00    3.9
2025/10/15 12:50:30.000      7202.6280      3125.0871        19.7696   1  10   0.0031   0.0039   0.0100   0.0022  -0.0031   0.0012   0.00    3.9
2025/10/15 12:50:31.000      7202.6302      3125.0873        19.7664   1  10   0.0034   0.0045   0.0098   0.0019  -0.0032   0.0013   0.00    3.9
2025/10/15 12:50:32.000      7202.6288      3125.0892        19.7654   1  10   0.0045   0.0040   0.0100   0.0019  -0.0026  -0.0011   0.00    3.9
2025/10/15 12:50:33.000      7202.6281      3125.0907        19.7657   1  10   0.0039   0.0044   0.0101   0.0017  -0.0031   0.0018   1.00    3.9
2025/10/15 12:50:34.000      7202.6289      3125.0903        19.7697   1  10   0.0021   0.0039   0.0099   0.0027  -0.0036   0.0024   0.00    3.9
2025/10/15 12:50:35.000      7202.6269      3125.0900        19.7645   1  10   0.0041   0.0046   0.0100   0.0015  -0.0030  -0.0005   0.00    3.9
2025/10/15 12:50:36.000      7202.6306      3125.0915        19.7681   1  10   0.0044   0.0042   0.0099   0.0013  -0.0030   0.0009   0.00    3.9
2025/10/15 12:50:37.000      7202.6295      3125.0901        19.7755   1  10   0.0039   0.0044   0.0101   0.0021  -0.0028   0.0006   1.00    3.9
2025/10/15 12:50:38.000      7202.6310      3125.0884        19.7743   1  10   0.0030   0.0047   0.0099   0.0020  -0.0031   0.0017   0.00    3.9
2025/10/15 12:50:39.000      7202.6307      3125.0889        19.7755   1  10   0.0034   0.0043   0.0101   0.0020  -0.0031   0.0018   1.00    3.9
2025/10/15 12:50:40.000      7202.6295      3125.0882        19.7746   1  10   0.0036   0.0039   0.0101   0.0027  -0.0031   0.0013   1.00    3.9
2025/10/15 12:50:41.000      7202.6310      3125.0884        19.7740   1  10   0.0043   0.0044   0.0099   0.0012  -0.0031   0.0009   0.00    3.9
2025/10/15 12:50:42.000      7202.6304      3125.0888        19.7736   1  10   0.0034   0.0030   0.0099   0.0013  -0.0034   0.0011   0.00    3.9
2025/10/15 12:50:43.000      7202.6297      3125.0892        19.7757   1  10   0.0030   0.0039   0.0101   0.0021  -0.0033   0.0013   0.00    3.9
2025/10/15 12:50:44.000      7202.6303      3125.0896        19.7805   1  10   0.0042   0.0047   0.0101   0.0019  -0.0030   0.0014   1.00    3.9
2025/10/15 12:50:45.000      7202.6308      3125.0876        19.7727   1  10   0.0033   0.0045   0.0101   0.0015  -0.0028   0.0013   1.00    3.9
2025/10/15 12:50:46.000      7202.6302      3125.0914        19.7774   1  10   0.0037   0.0044   0.0099   0.0007  -0.0033   0.0014   0.00    3.9
2025/10/15 12:50:47.000      7202.6300      3125.0900        19.7766   1  10   0.0034   0.0045   0.0101   0.0018  -0.0032   0.0019   1.00    3.9
2025/10/15 12:50:48.000      7202.6300      3125.0875        19.7774   1  10   0.0033   0.0049   0.0099   0.0019  -0.0030   0.0018   0.00    3.9
2025/10/15 12:50:49.000      7202.6298      3125.0867        19.7823   1  10   0.0039   0.0037   0.0099   0.0019  -0.0030   0.0006   0.00    3.9
2025/10/15 12:50:50.000      7202.6286      3125.0886        19.7773   1  10   0.0039   0.0045   0.0099   0.0014  -0.0030   0.0006   0.00    3.9
2025/10/15 12:50:51.000      7202.6299      3125.0886        19.7793   1  10   0.0039   0.0040   0.0100   0.0024  -0.0030   0.0012   0.00    3.9
2025/10/15 12:50:52.000      7202.6300      3125.0892        19.7780   1  10   0.0035   0.0053   0.0101  -0.0011  -0.0027   0.0006   1.00    3.9
2025/10/15 12:50:53.000      7202.6283      3125.0890        19.7802   1  10   0.0040   0.0044   0.0101  -0.0001  -0.0032   0.0016   1.00    3.9
2025/10/15 12:50:54.000      7202.6293      3125.0875        19.7832   1  10   0.0032   0.0046   0.0101   0.0012  -0.0030   0.0015   1.00    3.9
2025/10/15 12:50:55.000      7202.6318      3125.0877        19.7802   1  10   0.0026   0.0044   0.0100   0.0021  -0.0032   0.0021   1.00    3.9
2025/10/15 12:50:56.000      7202.6311      3125.0918        19.7872   1  10   0.0046   0.0047   0.0099   0.0014  -0.0028   0.0011   0.00    3.9
2025/10/15 12:50:57.000      7202.6313      3125.0893        19.7920   1  10   0.0042   0.0044   0.0101  -0.0010  -0.0033   0.0009   1.00    3.9
2025/10/15 12:50:58.000      7202.6299      3125.0864        19.7855   1  10   0.0033   0.0048   0.0100  -0.0013  -0.0030   0.0012   0.00    3.9
2025/10/15 12:50:59.000      7202.6305      3125.0854        19.7893   1  10   0.0037   0.0047   0.0100   0.0020  -0.0031   0.0019   1.00    3.9
2025/10/15 12:51:00.000      7202.6289      3125.0882        19.7797   1  10   0.0029   0.0046   0.0102   0.0010  -0.0027   0.0012   1.00    3.9
2025/10/15 12:51:01.000      7202.6340      3125.0885        19.7799   1  10   0.0035   0.0046   0.0101   0.0018  -0.0029   0.0014   1.00    3.9
2025/10/15 12:51:02.000      7202.6304      3125.0875        19.7824   1  10   0.0037   0.0048   0.0099   0.0022  -0.0026   0.0015   0.00    3.9
2025/10/15 12:51:03.000      7202.6296      3125.0854        19.7833   1  10   0.0035   0.0043   0.0099   0.0015  -0.0027   0.0015   0.00    3.9
2025/10/15 12:51:04.000      7202.6302      3125.0845        19.7821   1  10   0.0033   0.0037   0.0099   0.0021  -0.0034   0.0019   0.00    3.9
2025/10/15 12:51:05.000      7202.6290      3125.0847        19.7832   1  10   0.0040   0.0049   0.0098   0.0010  -0.0031   0.0020   0.00    3.9
2025/10/15 12:51:06.000      7202.6281      3125.0863        19.7845   1  10   0.0032   0.0040   0.0099   0.0016  -0.0033   0.0016   0.00    3.9
2025/10/15 12:51:07.000      7202.6297      3125.0835        19.7885   1  10   0.0035   0.0045   0.0101   0.0019  -0.0031   0.0016   1.00    3.9
2025/10/15 12:51:08.000      7202.6330      3125.0851        19.7798   1  10   0.0040   0.0050   0.0099   0.0022  -0.0030   0.0022   0.00    3.9
2025/10/15 12:51:09.000      7202.6332      3125.0846        19.7848   1  10   0.0037   0.0049   0.0101   0.0009  -0.0028   0.0014   1.00    3.9
2025/10/15 12:51:10.000      7202.6320      3125.0817        19.7867   1  10   0.0027   0.0042   0.0101   0.0028  -0.0030   0.0020   1.00    3.9
2025/10/15 12:51:11.000      7202.6310      3125.0842        19.7812   1  10   0.0034   0.0049   0.0099   0.0017  -0.0031   0.0016   0.00    3.9
2025/10/15 12:51:12.000      7202.6313      3125.0802        19.7853   1  10   0.0034   0.0039   0.0102   0.0024  -0.0032   0.0019   1.00    3.9
2025/10/15 12:51:13.000      7202.6321      3125.0804        19.7866   1  10   0.0034   0.0052   0.0101   0.0005  -0.0029   0.0015   1.00    3.9
2025/10/15 12:51:14.000      7202.6315      3125.0862        19.7873   1  10   0.0037   0.0043   0.0100  -0.0011  -0.0028   0.0014   0.00    3.9
2025/10/15 12:51:15.000      7202.6314      3125.0822        19.7879   1  10   0.0033   0.0036   0.0100   0.0025  -0.0032   0.0016   1.00    3.9
2025/10/15 12:51:16.000      7202.6288      3125.0852        19.7812   1  10   0.0038   0.0053   0.0098   0.0015  -0.0030   0.0013   0.00    3.9
2025/10/15 12:51:17.000      7202.6291      3125.0829        19.7777   1  10   0.0041   0.0044   0.0100   0.0022  -0.0028   0.0018   1.00    3.9
2025/10/15 12:51:18.000      7202.6291      3125.0819        19.7804   1  10   0.0037   0.0056   0.0098   0.0010  -0.0028   0.0016   0.00    3.9
2025/10/15 12:51:19.000      7202.6299      3125.0794        19.7790   1  10   0.0035   0.0047   0.0101   0.0021  -0.0030   0.0018   1.00    3.9
2025/10/15 12:51:20.000      7202.6305      3125.0827        19.7776   1  10   0.0037   0.0048   0.0102  -0.0005  -0.0031   0.0019   1.00    3.9
2025/10/15 12:51:21.000      7202.6288      3125.0845        19.7744   1  10   0.0029   0.0030   0.0099   0.0027  -0.0030   0.0021   0.00    3.9
2025/10/15 12:51:22.000      7202.6296      3125.0781        19.7772   1  10   0.0038   0.0046   0.0102   0.0018  -0.0030   0.0017   1.00    3.9
2025/10/15 12:51:23.000      7202.6306      3125.0859        19.7708   1  10   0.0030   0.0037   0.0099   0.0022  -0.0032   0.0017   0.00    3.9
2025/10/15 12:51:24.000      7202.6297      3125.0849        19.7816   1  10   0.0039   0.0039   0.0100   0.0015  -0.0029   0.0012   0.00    3.9
2025/10/15 12:51:25.000      7202.6306      3125.0826        19.7789   1  10   0.0036   0.0049   0.0101   0.0004  -0.0029   0.0016   1.00    3.9
2025/10/15 12:51:26.000      7202.6292      3125.0850        19.7766   1  10   0.0039   0.0042   0.0099   0.0016  -0.0029   0.0010   0.00    3.9
2025/10/15 12:51:27.000      7202.6298      3125.0832        19.7726   1  10   0.0033   0.0042   0.0101   0.0022  -0.0030   0.0018   1.00    3.9
2025/10/15 12:51:28.000      7202.6277      3125.0841        19.7727   1  10   0.0034   0.0041   0.0100   0.0017  -0.0031   0.0017   0.00    3.9
2025/10/15 12:51:29.000      7202.6288      3125.0804        19.7763   1  10   0.0038   0.0050   0.0101  -0.0000  -0.0029   0.0016   1.00    3.9
2025/10/15 12:51:30.000      7202.6319      3125.0859        19.7750   1  10   0.0018   0.0046   0.0100   0.0014  -0.0030   0.0018   0.00    3.9
2025/10/15 12:51:31.000      7202.6317      3125.0874        19.7749   1  10   0.0034   0.0046   0.0100   0.0018  -0.0030   0.0015   0.00    3.9
2025/10/15 12:51:32.000      7202.6300      3125.0854        19.7775   1  10   0.0040   0.0046   0.0099   0.0010  -0.0030   0.0012   0.00    3.9
2025/10/15 12:51:33.000      7202.6302      3125.0842        19.7723   1  10   0.0036   0.0041   0.0102   0.0024  -0.0033   0.0019   1.00    3.8
2025/10/15 12:51:34.000      7202.6316      3125.0847        19.7795   1  10   0.0032   0.0048   0.0099   0.0014  -0.0030   0.0016   0.00    3.9
2025/10/15 12:51:35.000      7202.6314      3125.0844        19.7746   1  10   0.0040   0.0045   0.0101  -0.0015  -0.0029   0.0007   1.00    3.9
2025/10/15 12:51:36.000      7202.6289      3125.0857        19.7816   1  10   0.0025   0.0046   0.0099   0.0025  -0.0032   0.0024   0.00    3.9
2025/10/15 12:51:37.000      7202.6287      3125.0845        19.7775   1  10   0.0031   0.0043   0.0100   0.0022  -0.0033   0.0022   1.00    3.9
2025/10/15 12:51:38.000      7202.6269      3125.0832        19.7700   1  10   0.0032   0.0046   0.0099   0.0010  -0.0027   0.0017   0.00    3.9
2025/10/15 12:51:39.000      7202.6273      3125.0832        19.7656   1  10   0.0035   0.0049   0.0100   0.0017  -0.0028   0.0019   1.00    3.9
2025/10/15 12:51:40.000      7202.6282      3125.0797        19.7670   1  10   0.0038   0.0043   0.0101  -0.0008  -0.0031   0.0017   1.00    3.9
2025/10/15 12:51:41.000      7202.6310      3125.0845        19.7729   1  10   0.0029   0.0046   0.0100   0.0006  -0.0029   0.0012   0.00    3.9
2025/10/15 12:51:42.000      7202.6304      3125.0839        19.7719   1  10   0.0037   0.0047   0.0100   0.0020  -0.0031   0.0022   0.00    3.9
2025/10/15 12:51:43.000      7202.6310      3125.0799        19.7682   1  10   0.0033   0.0040   0.0100   0.0016  -0.0033   0.0017   1.00    3.9
2025/10/15 12:51:44.000      7202.6310      3125.0829        19.7724   1  10   0.0041   0.0046   0.0102  -0.0007  -0.0029   0.0008   1.00    3.9
2025/10/15 12:51:45.000      7202.6318      3125.0829        19.7687   1  10   0.0037   0.0042   0.0100   0.0019  -0.0030   0.0019   0.00    3.9
2025/10/15 12:51:46.000      7202.6315      3125.0826        19.7699   1  10   0.0038   0.0038   0.0100   0.0021  -0.0029   0.0014   0.00    3.9
2025/10/15 12:51:47.000      7202.6330      3125.0832        19.7643   1  10   0.0038   0.0043   0.0101   0.0018  -0.0031   0.0015   1.00    3.9
2025/10/15 12:51:48.000      7202.6311      3125.0820        19.7722   1  10   0.0038   0.0052   0.0099  -0.0006  -0.0027   0.0012   0.00    3.9
2025/10/15 12:51:49.000      7202.6321      3125.0850        19.7721   1  10   0.0035   0.0038   0.0099   0.0027  -0.0030   0.0017   0.00    3.9
2025/10/15 12:51:50.000      7202.6311      3125.0842        19.7758   1  10   0.0036   0.0043   0.0100   0.0018  -0.0030   0.0005   0.00    3.9
2025/10/15 12:51:51.000      7202.6324      3125.0829        19.7755   1  10   0.0031   0.0051   0.0099  -0.0011  -0.0031   0.0018   0.00    3.9
2025/10/15 12:51:52.000      7202.6338      3125.0823        19.7632   1  10   0.0033   0.0045   0.0100   0.0017  -0.0029   0.0012   0.00    3.9
2025/10/15 12:51:53.000      7202.6359      3125.0807        19.7648   1  10   0.0041   0.0042   0.0102   0.0015  -0.0029   0.0014   1.00    3.9
2025/10/15 12:51:54.000      7202.6321      3125.0817        19.7745   1  10   0.0034   0.0045   0.0100   0.0015  -0.0031   0.0014   1.00    3.9
2025/10/15 12:51:55.000      7202.6328      3125.0810        19.7743   1  10   0.0038   0.0045   0.0101   0.0016  -0.0030   0.0012   1.00    3.9
2025/10/15 12:51:56.000      7202.6349      3125.0840        19.7724   1  10   0.0034   0.0045   0.0099   0.0026  -0.0033   0.0020   0.00    3.9
2025/10/15 12:51:57.000      7202.6332      3125.0834        19.7769   1  10   0.0034   0.0042   0.0100   0.0017  -0.0030   0.0016   0.00    3.9
2025/10/15 12:51:58.000      7202.6333      3125.0793        19.7739   1  10   0.0038   0.0048   0.0101   0.0009  -0.0032   0.0019   1.00    3.9
2025/10/15 12:51:59.000      7202.6345      3125.0826        19.7798   1  10   0.0040   0.0044   0.0100  -0.0008  -0.0030   0.0012   0.00    3.9
2025/10/15 12:52:00.000      7202.6328      3125.0806        19.7713   1  10   0.0032   0.0050   0.0099   0.0014  -0.0031   0.0016   0.00    3.9
2025/10/15 12:52:01.000      7202.6319      3125.0773        19.7760   1  10   0.0041   0.0045   0.0101   0.0025  -0.0029   0.0014   1.00    3.9
2025/10/15 12:52:02.000      7202.6331      3125.0824        19.7792   1  10   0.0029   0.0044   0.0098   0.0021  -0.0031   0.0017   0.00    3.9
2025/10/15 12:52:03.000      7202.6321      3125.0809        19.7754   1  10   0.0032   0.0038   0.0099   0.0021  -0.0031   0.0018   0.00    3.9
2025/10/15 12:52:04.000      7202.6324      3125.0811        19.7813   1  10   0.0039   0.0046   0.0100  -0.0011  -0.0030   0.0006   0.00    3.9
2025/10/15 12:52:05.000      7202.6328      3125.0793        19.7796   1  10   0.0024   0.0041   0.0102   0.0025  -0.0031   0.0021   1.00    3.9
2025/10/15 12:52:06.000      7202.6317      3125.0795        19.7764   1  10   0.0026   0.0039   0.0099   0.0018  -0.0029   0.0013   0.00    4.0
2025/10/15 12:52:07.000      7202.6311      3125.0798        19.7731   1  10   0.0035   0.0046   0.0100   0.0023  -0.0027   0.0017   1.00    4.0
2025/10/15 12:52:08.000      7202.6316      3125.0782        19.7820   1  10   0.0033   0.0048   0.0099   0.0018  -0.0033   0.0021   0.00    4.0
2025/10/15 12:52:09.000      7202.6344      3125.0792        19.7797   1  10   0.0033   0.0037   0.0100   0.0015  -0.0032   0.0011   0.00    4.0
2025/10/15 12:52:10.000      7202.6339      3125.0773        19.7800   1  10   0.0039   0.0045   0.0101   0.0027  -0.0026   0.0016   1.00    4.0
2025/10/15 12:52:11.000      7202.6322      3125.0803        19.7795   1  10   0.0026   0.0045   0.0100   0.0020  -0.0028   0.0015   0.00    4.0
2025/10/15 12:52:12.000      7202.6343      3125.0777        19.7810   1  10   0.0033   0.0047   0.0099   0.0011  -0.0028   0.0015   0.00    4.0
2025/10/15 12:52:13.000      7202.6360      3125.0781        19.7767   1  10   0.0036   0.0048   0.0101  -0.0005  -0.0028   0.0006   1.00    4.0
2025/10/15 12:52:14.000      7202.6327      3125.0796        19.7795   1  10   0.0032   0.0050   0.0099   0.0013  -0.0028   0.0020   0.00    4.0
2025/10/15 12:52:15.000      7202.6332      3125.0788        19.7826   1  10   0.0034   0.0043   0.0101   0.0017  -0.0031   0.0021   1.00    4.0
2025/10/15 12:52:16.000      7202.6348      3125.0835        19.7759   1  10   0.0033   0.0048   0.0099   0.0016  -0.0030   0.0019   0.00    4.0
2025/10/15 12:52:17.000      7202.6336      3125.0816        19.7796   1  10   0.0041   0.0049   0.0100   0.0007  -0.0027   0.0014   0.00    4.0
2025/10/15 12:52:18.000      7202.6335      3125.0826        19.7782   1  10   0.0033   0.0038   0.0102   0.0024  -0.0032   0.0015   1.00    4.0
2025/10/15 12:52:19.000      7202.6314      3125.0819        19.7802   1  10   0.0036   0.0050   0.0099   0.0015  -0.0026   0.0011   0.00    4.0
2025/10/15 12:52:20.000      7202.6314      3125.0794        19.7814   1  10   0.0039   0.0048   0.0100   0.0022  -0.0031   0.0015   1.00    4.0
2025/10/15 12:52:21.000      7202.6343      3125.0823        19.7891   1  10   0.0030   0.0034   0.0100   0.0021  -0.0031   0.0015   0.00    4.0
2025/10/15 12:52:22.000      7202.6341      3125.0835        19.7839   1  10   0.0039   0.0044   0.0100   0.0013  -0.0029   0.0015   0.00    4.0
2025/10/15 12:52:23.000      7202.6344      3125.0810        19.7848   1  10   0.0040   0.0046   0.0101   0.0020  -0.0030   0.0020   1.00    4.0
2025/10/15 12:52:24.000      7202.6324      3125.0811        19.7868   1  10   0.0032   0.0052   0.0100  -0.0008  -0.0028   0.0019   0.00    4.0
2025/10/15 12:52:25.000      7202.6351      3125.0814        19.7875   1  10   0.0030   0.0046   0.0101   0.0020  -0.0031   0.0018   1.00    4.0
2025/10/15 12:52:26.000      7202.6338      3125.0829        19.7791   1  10   0.0035   0.0035   0.0098   0.0025  -0.0036   0.0018   0.00    4.0
2025/10/15 12:52:27.000      7202.6344      3125.0831        19.7830   1  10   0.0041   0.0038   0.0102   0.0017  -0.0028   0.0010   1.00    4.0
2025/10/15 12:52:28.000      7202.6330      3125.0814        19.7764   1  10   0.0039   0.0046   0.0102   0.0016  -0.0029   0.0015   1.00    4.0
2025/10/15 12:52:29.000      7202.6332      3125.0821        19.7810   1  10   0.0032   0.0050   0.0100  -0.0008  -0.0024   0.0008   0.00    4.0
2025/10/15 12:52:30.000      7202.6328      3125.0789        19.7796   1  10   0.0031   0.0044   0.0100   0.0009  -0.0034   0.0025   1.00    4.0
2025/10/15 12:52:31.000      7202.6321      3125.0830        19.7813   1  10   0.0029   0.0046   0.0099   0.0024  -0.0028   0.0020   0.00    4.0
2025/10/15 12:52:32.000      7202.6328      3125.0843        19.7773   1  10   0.0040   0.0048   0.0099   0.0011  -0.0027   0.0016   0.00    4.0
2025/10/15 12:52:33.000      7202.6348      3125.0824        19.7807   1  10   0.0037   0.0042   0.0100   0.0018  -0.0034   0.0013   0.00    4.0
2025/10/15 12:52:34.000      7202.6317      3125.0828        19.7817   1  10   0.0040   0.0050   0.0099   0.0006  -0.0025   0.0013   0.00    4.0
2025/10/15 12:52:35.000      7202.6316      3125.0809        19.7769   1  10   0.0029   0.0039   0.0099   0.0025  -0.0033   0.0018   0.00    4.0
2025/10/15 12:52:36.000      7202.6318      3125.0782        19.7783   1  10   0.0036   0.0050   0.0099  -0.0010  -0.0024  -0.0008   0.00    4.0
2025/10/15 12:52:37.000      7202.6344      3125.0794        19.7834   1  10   0.0028   0.0042   0.0102   0.0026  -0.0031   0.0023   1.00    4.0
2025/10/15 12:52:38.000      7202.6328      3125.0816        19.7851   1  10   0.0036   0.0050   0.0099  -0.0006  -0.0028   0.0020   0.00    4.0
2025/10/15 12:52:39.000      7202.6349      3125.0807        19.7895   1  10   0.0031   0.0043   0.0101   0.0017  -0.0029   0.0019   1.00    4.0
2025/10/15 12:52:40.000      7202.6323      3125.0804        19.7842   1  10   0.0039   0.0046   0.0099  -0.0005  -0.0029   0.0004   0.00    4.0
2025/10/15 12:52:41.000      7202.6332      3125.0798        19.7806   1  10   0.0040   0.0043   0.0100   0.0015  -0.0027   0.0016   0.00    4.0
2025/10/15 12:52:42.000      7202.6348      3125.0776        19.7778   1  10   0.0037   0.0049   0.0099  -0.0011  -0.0027   0.0019   0.00    4.0
2025/10/15 12:52:43.000      7202.6354      3125.0788        19.7794   1  10   0.0022   0.0034   0.0100   0.0017  -0.0029   0.0016   0.00    4.0
2025/10/15 12:52:44.000      7202.6327      3125.0786        19.7728   1  10   0.0043   0.0050   0.0100   0.0004  -0.0027   0.0011   0.00    4.0
2025/10/15 12:52:45.000      7202.6330      3125.0758        19.7753   1  10   0.0030   0.0048   0.0101   0.0014  -0.0032   0.0019   1.00    4.0
2025/10/15 12:52:46.000      7202.6330      3125.0782        19.7792   1  10   0.0035   0.0045   0.0100   0.0018  -0.0028   0.0013   0.00    4.0
2025/10/15 12:52:47.000      7202.6333      3125.0791        19.7742   1  10   0.0039   0.0045   0.0100   0.0016  -0.0028   0.0015   0.00    4.0
2025/10/15 12:52:48.000      7202.6334      3125.0776        19.7827   1  10   0.0029   0.0047   0.0098   0.0010  -0.0030   0.0020   0.00    4.0
2025/10/15 12:52:49.000      7202.6345      3125.0761        19.7864   1  10   0.0035   0.0047   0.0102   0.0022  -0.0030   0.0016   1.00    4.0
2025/10/15 12:52:50.000      7202.6333      3125.0795        19.7797   1  10   0.0025   0.0041   0.0099   0.0019  -0.0032   0.0023   0.00    4.0
2025/10/15 12:52:51.000      7202.6345      3125.0782        19.7829   1  10   0.0030   0.0052   0.0099  -0.0009  -0.0031   0.0019   0.00    4.0
2025/10/15 12:52:52.000      7202.6366      3125.0785        19.7805   1  10   0.0028   0.0045   0.0100   0.0022  -0.0027   0.0015   0.00    4.0
2025/10/15 12:52:53.000      7202.6365      3125.0753        19.7780   1  10   0.0032   0.0037   0.0100   0.0013  -0.0029   0.0015   0.00    4.0
2025/10/15 12:52:54.000      7202.6370      3125.0762        19.7783   1  10   0.0025   0.0047   0.0099   0.0024  -0.0033   0.0026   0.00    4.0
2025/10/15 12:52:55.000      7202.6358      3125.0804        19.7761   1  10   0.0035   0.0042   0.0100   0.0012  -0.0030   0.0016   0.00    4.0
2025/10/15 12:52:56.000      7202.6362      3125.0788        19.7820   1  10   0.0038   0.0048   0.0099   0.0002  -0.0027   0.0011   0.00    4.0
2025/10/15 12:52:57.000      7202.6361      3125.0776        19.7776   1  10   0.0034   0.0041   0.0099   0.0021  -0.0033   0.0021   0.00    4.0
2025/10/15 12:52:58.000      7202.6358      3125.0794        19.7811   1  10   0.0029   0.0046   0.0100   0.0004  -0.0027   0.0015   0.00    4.0
2025/10/15 12:52:59.000      7202.6358      3125.0744        19.7861   1  10   0.0033   0.0043   0.0099   0.0021  -0.0030   0.0018   0.00    4.0
2025/10/15 12:53:00.000      7202.6346      3125.0780        19.7756   1  10   0.0039   0.0049   0.0099   0.0015  -0.0028   0.0016   0.00    4.0
2025/10/15 12:53:01.000      7202.6363      3125.0798        19.7792   1  10   0.0039   0.0039   0.0100  -0.0003  -0.0028   0.0014   0.00    4.0
2025/10/15 12:53:02.000      7202.6352      3125.0766        19.7750   1  10   0.0026   0.0043   0.0099   0.0015  -0.0031   0.0016   0.00    4.0
2025/10/15 12:53:03.000      7202.6354      3125.0743        19.7793   1  10   0.0036   0.0041   0.0101   0.0013  -0.0029   0.0013   1.00    4.0
2025/10/15 12:53:04.000      7202.6337      3125.0769        19.7831   1  10   0.0036   0.0048   0.0101   0.0020  -0.0029   0.0014   1.00    4.0
2025/10/15 12:53:05.000      7202.6353      3125.0806        19.7811   1  10   0.0036   0.0038   0.0100   0.0018  -0.0031   0.0015   0.00    4.0
2025/10/15 12:53:06.000      7202.6359      3125.0799        19.7770   1  10   0.0045   0.0049   0.0101  -0.0013  -0.0030   0.0015   0.00    4.0
2025/10/15 12:53:07.000      7202.6361      3125.0802        19.7794   1  10   0.0025   0.0045   0.0102   0.0018  -0.0032   0.0017   1.00    4.1
2025/10/15 12:53:08.000      7202.6357      3125.0804        19.7786   1  10   0.0034   0.0047   0.0100   0.0018  -0.0030   0.0016   0.00    4.1
2025/10/15 12:53:09.000      7202.6376      3125.0809        19.7784   1  10   0.0028   0.0038   0.0099   0.0028  -0.0030   0.0022   0.00    4.1
2025/10/15 12:53:10.000      7202.6386      3125.0805        19.7788   1  10   0.0039   0.0046   0.0101   0.0022  -0.0030   0.0020   1.00    4.1
2025/10/15 12:53:11.000      7202.6349      3125.0803        19.7754   1  10   0.0036   0.0043   0.0099   0.0022  -0.0032   0.0022   0.00    4.1
2025/10/15 12:53:12.000      7202.6362      3125.0797        19.7751   1  10   0.0033   0.0044   0.0101   0.0023  -0.0025   0.0010   1.00    4.1
2025/10/15 12:53:13.000      7202.6363      3125.0769        19.7777   1  10   0.0032   0.0039   0.0101   0.0021  -0.0034   0.0021   1.00    4.1
2025/10/15 12:53:14.000      7202.6357      3125.0796        19.7732   1  10   0.0035   0.0044   0.0099   0.0016  -0.0028   0.0016   0.00    4.1
2025/10/15 12:53:15.000      7202.6376      3125.0812        19.7794   1  10   0.0037   0.0048   0.0098   0.0018  -0.0031   0.0018   0.00    4.1
2025/10/15 12:53:16.000      7202.6370      3125.0785        19.7796   1  10   0.0039   0.0044   0.0101  -0.0016  -0.0029   0.0017   0.00    4.1
2025/10/15 12:53:17.000      7202.6375      3125.0776        19.7772   1  10   0.0041   0.0044   0.0102  -0.0011  -0.0032   0.0014   1.00    4.1
2025/10/15 12:53:18.000      7202.6350      3125.0785        19.7800   1  10   0.0041   0.0046   0.0100  -0.0010  -0.0028   0.0019   0.00    4.1
2025/10/15 12:53:19.000      7202.6333      3125.0821        19.7823   1  10   0.0031   0.0039   0.0100  -0.0004  -0.0029   0.0019   0.00    4.1
2025/10/15 12:53:20.000      7202.6351      3125.0808        19.7882   1  10   0.0040   0.0051   0.0103  -0.0016  -0.0028   0.0014   1.00    4.1
2025/10/15 12:53:21.000      7202.6347      3125.0803        19.7798   1  10   0.0042   0.0050   0.0100   0.0015  -0.0027   0.0014   0.00    4.1
2025/10/15 12:53:22.000      7202.6342      3125.0777        19.7788   1  10   0.0032   0.0045   0.0101   0.0022  -0.0029   0.0015   1.00    4.1
2025/10/15 12:53:23.000      7202.6359      3125.0792        19.7877   1  10   0.0035   0.0047   0.0101  -0.0015  -0.0031   0.0014   0.00    4.1
2025/10/15 12:53:24.000      7202.6356      3125.0769        19.7896   1  10   0.0031   0.0044   0.0101   0.0018  -0.0030   0.0019   1.00    4.1
2025/10/15 12:53:25.000      7202.6374      3125.0782        19.7763   1  10   0.0026   0.0045   0.0100   0.0014  -0.0032   0.0018   0.00    4.1
2025/10/15 12:53:26.000      7202.6375      3125.0789        19.7812   1  10   0.0040   0.0043   0.0101   0.0016  -0.0026   0.0014   0.00    4.1
2025/10/15 12:53:27.000      7202.6386      3125.0768        19.7829   1  10   0.0036   0.0046   0.0102   0.0003  -0.0027   0.0012   1.00    4.1
2025/10/15 12:53:28.000      7202.6371      3125.0787        19.7851   1  10   0.0033   0.0051   0.0100   0.0020  -0.0027   0.0017   0.00    4.1
2025/10/15 12:53:29.000      7202.6374      3125.0757        19.7837   1  10   0.0036   0.0040   0.0101   0.0020  -0.0031   0.0010   1.00    4.1
2025/10/15 12:53:30.000      7202.6367      3125.0772        19.7817   1  10   0.0032   0.0044   0.0099   0.0018  -0.0031   0.0018   0.00    4.2
2025/10/15 12:53:31.000      7202.6377      3125.0781        19.7809   1  10   0.0033   0.0039   0.0100   0.0022  -0.0031   0.0018   0.00    4.2
2025/10/15 12:53:32.000      7202.6367      3125.0796        19.7840   1  10   0.0038   0.0035   0.0101   0.0010  -0.0028   0.0012   0.00    4.2
2025/10/15 12:53:33.000      7202.6385      3125.0790        19.7805   1  10   0.0023   0.0036   0.0100   0.0019  -0.0034   0.0021   0.00    4.2
2025/10/15 12:53:34.000      7202.6363      3125.0799        19.7814   1  10   0.0034   0.0042   0.0100   0.0013  -0.0026   0.0009   0.00    4.2
2025/10/15 12:53:35.000      7202.6374      3125.0765        19.7847   1  10   0.0035   0.0037   0.0101   0.0029  -0.0031   0.0018   1.00    4.2
2025/10/15 12:53:36.000      7202.6388      3125.0777        19.7809   1  10   0.0030   0.0045   0.0100   0.0022  -0.0028   0.0018   0.00    4.2
2025/10/15 12:53:37.000      7202.6400      3125.0766        19.7849   1  10   0.0039   0.0046   0.0101   0.0025  -0.0030   0.0019   1.00    4.2
2025/10/15 12:53:38.000      7202.6374      3125.0802        19.7883   1  10   0.0036   0.0046   0.0101   0.0025  -0.0029   0.0020   1.00    4.2
2025/10/15 12:53:39.000      7202.6378      3125.0830        19.7805   1  10   0.0040   0.0045   0.0099   0.0013  -0.0027   0.0009   0.00    4.2
2025/10/15 12:53:40.000      7202.6370      3125.0866        19.7758   1  10   0.0040   0.0045   0.0100  -0.0008  -0.0030   0.0016   0.00    4.2
2025/10/15 12:53:41.000      7202.6381      3125.0814        19.7781   1  10   0.0036   0.0034   0.0101   0.0022  -0.0033   0.0017   0.00    4.2
2025/10/15 12:53:42.000      7202.6384      3125.0841        19.7806   1  10   0.0035   0.0039   0.0100   0.0020  -0.0028   0.0019   0.00    4.2
2025/10/15 12:53:43.000      7202.6398      3125.0795        19.7842   1  10   0.0035   0.0044   0.0102   0.0009  -0.0029   0.0016   1.00    4.2
2025/10/15 12:53:44.000      7202.6396      3125.0804        19.7838   1  10   0.0029   0.0043   0.0102   0.0021  -0.0029   0.0018   1.00    4.2
2025/10/15 12:53:45.000      7202.6404      3125.0793        19.7817   1  10   0.0034   0.0046   0.0102   0.0012  -0.0031   0.0020   1.00    4.2
2025/10/15 12:53:46.000      7202.6393      3125.0823        19.7801   1  10   0.0033   0.0047   0.0099   0.0021  -0.0029   0.0019   0.00    4.2
2025/10/15 12:53:47.000      7202.6396      3125.0832        19.7820   1  10   0.0035   0.0037   0.0102   0.0007  -0.0028   0.0013   0.00    4.2
2025/10/15 12:53:48.000      7202.6401      3125.0789        19.7815   1  10   0.0030   0.0047   0.0102   0.0019  -0.0023   0.0017   1.00    4.2
2025/10/15 12:53:49.000      7202.6403      3125.0845        19.7787   1  10   0.0039   0.0051   0.0101   0.0003  -0.0024   0.0009   1.00    4.2
2025/10/15 12:53:50.000      7202.6403      3125.0795        19.7892   1  10   0.0036   0.0045   0.0100   0.0016  -0.0029   0.0018   1.00    4.2
2025/10/15 12:53:51.000      7202.6387      3125.0832        19.7800   1  10   0.0036   0.0040   0.0101   0.0022  -0.0026   0.0013   0.00    4.3
2025/10/15 12:53:52.000      7202.6389      3125.0843        19.7813   1  10   0.0034   0.0032   0.0100   0.0020  -0.0030   0.0016   0.00    4.3
2025/10/15 12:53:53.000      7202.6388      3125.0828        19.7848   1  10   0.0032   0.0037   0.0100   0.0021  -0.0029   0.0021   0.00    4.3
2025/10/15 12:53:54.000      7202.6376      3125.0818        19.7892   1  10   0.0043   0.0046   0.0102  -0.0015  -0.0028   0.0008   1.00    4.3
2025/10/15 12:53:55.000      7202.6420      3125.0826        19.7895   1  10   0.0037   0.0048   0.0101   0.0012  -0.0030   0.0014   1.00    4.3
2025/10/15 12:53:56.000      7202.6392      3125.0826        19.7819   1  10   0.0038   0.0054   0.0099  -0.0007  -0.0029   0.0015   0.00    4.3
2025/10/15 12:53:57.000      7202.6400      3125.0819        19.7812   1  10   0.0035   0.0052   0.0099  -0.0021  -0.0028   0.0014   0.00    4.3
2025/10/15 12:53:58.000      7202.6405      3125.0856        19.7825   1  10   0.0039   0.0043   0.0100   0.0010  -0.0033   0.0015   0.00    4.3
2025/10/15 12:53:59.000      7202.6420      3125.0852        19.7817   1  10   0.0041   0.0044   0.0101   0.0009  -0.0030   0.0016   1.00    4.3
2025/10/15 12:54:00.000      7202.6408      3125.0851        19.7835   1  10   0.0045   0.0050   0.0100  -0.0019  -0.0029   0.0004   0.00    4.3
2025/10/15 12:54:01.000      7202.6387      3125.0842        19.7823   1  10   0.0039   0.0044   0.0100  -0.0008  -0.0030   0.0011   0.00    4.3
2025/10/15 12:54:02.000      7202.6387      3125.0847        19.7866   1  10   0.0029   0.0047   0.0100  -0.0004  -0.0030   0.0020   0.00    4.3
2025/10/15 12:54:03.000      7202.6402      3125.0827        19.7851   1  10   0.0034   0.0039   0.0102   0.0018  -0.0032   0.0020   1.00    4.3
2025/10/15 12:54:04.000      7202.6393      3125.0838        19.7845   1  10   0.0044   0.0047   0.0101   0.0006  -0.0024   0.0013   0.00    4.3
2025/10/15 12:54:05.000      7202.6424      3125.0824        19.7880   1  10   0.0037   0.0043   0.0102  -0.0011  -0.0029   0.0009   1.00    4.3
2025/10/15 12:54:06.000      7202.6391      3125.0837        19.7780   1  10   0.0032   0.0038   0.0100   0.0007  -0.0028   0.0016   0.00    4.3
2025/10/15 12:54:07.000      7202.6412      3125.0825        19.7753   1  10   0.0029   0.0047   0.0101   0.0018  -0.0032   0.0024   1.00    4.4
2025/10/15 12:54:08.000      7202.6420      3125.0835        19.7854   1  10   0.0035   0.0046   0.0102   0.0004  -0.0029   0.0012   1.00    4.4
2025/10/15 12:54:09.000      7202.6401      3125.0818        19.7762   1  10   0.0038   0.0047   0.0102   0.0002  -0.0033   0.0017   1.00    4.4
2025/10/15 12:54:10.000      7202.6395      3125.0834        19.7729   1  10   0.0033   0.0044   0.0101   0.0012  -0.0030   0.0014   1.00    4.4
2025/10/15 12:54:11.000      7202.6397      3125.0852        19.7757   1  10   0.0035   0.0041   0.0100   0.0012  -0.0029   0.0012   0.00    4.4
2025/10/15 12:54:12.000      7202.6385      3125.0835        19.7836   1  10   0.0039   0.0042   0.0100   0.0006  -0.0028   0.0018   0.00    4.4
2025/10/15 12:54:13.000      7202.6394      3125.0849        19.7793   1  10   0.0041   0.0046   0.0102  -0.0002  -0.0032   0.0020   1.00    4.4
2025/10/15 12:54:14.000      7202.6424      3125.0891        19.7798   1  10   0.0039   0.0050   0.0100   0.0009  -0.0029   0.0020   0.00    4.4
2025/10/15 12:54:15.000      7202.6425      3125.0883        19.7809   1  10   0.0038   0.0041   0.0102   0.0018  -0.0028   0.0020   1.00    4.4
2025/10/15 12:54:16.000      7202.6384      3125.0869        19.7766   1  10   0.0041   0.0042   0.0100   0.0014  -0.0032   0.0017   0.00    4.4
2025/10/15 12:54:17.000      7202.6392      3125.0844        19.7780   1  10   0.0036   0.0037   0.0102   0.0021  -0.0030   0.0016   1.00    4.4
2025/10/15 12:54:18.000      7202.6396      3125.0847        19.7779   1  10   0.0032   0.0039   0.0101   0.0012  -0.0027   0.0018   0.00    4.4
2025/10/15 12:54:19.000      7202.6398      3125.0837        19.7763   1  10   0.0041   0.0048   0.0101  -0.0015  -0.0029   0.0009   1.00    4.4
2025/10/15 12:54:20.000      7202.6392      3125.0828        19.7807   1  10   0.0036   0.0048   0.0098   0.0020  -0.0029   0.0017   0.00    4.4
2025/10/15 12:54:21.000      7202.6416      3125.0836        19.7804   1  10   0.0038   0.0043   0.0100   0.0007  -0.0027   0.0013   0.00    4.4
2025/10/15 12:54:22.000      7202.6417      3125.0833        19.7778   1  10   0.0032   0.0038   0.0102   0.0012  -0.0030   0.0007   1.00    4.5
2025/10/15 12:54:23.000      7202.6413      3125.0887        19.7824   1  10   0.0036   0.0038   0.0102   0.0025  -0.0032   0.0013   1.00    4.5
2025/10/15 12:54:24.000      7202.6407      3125.0838        19.7828   1  10   0.0039   0.0044   0.0100   0.0009  -0.0029   0.0019   0.00    4.5
2025/10/15 12:54:25.000      7202.6410      3125.0835        19.7785   1  10   0.0036   0.0046   0.0102   0.0011  -0.0028   0.0018   1.00    4.5
2025/10/15 12:54:26.000      7202.6416      3125.0830        19.7806   1  10   0.0034   0.0046   0.0099  -0.0011  -0.0029   0.0016   0.00    4.5
2025/10/15 12:54:27.000      7202.6423      3125.0824        19.7752   1  10   0.0032   0.0044   0.0101   0.0011  -0.0030   0.0016   1.00    4.5
2025/10/15 12:54:28.000      7202.6398      3125.0829        19.7776   1  10   0.0044   0.0042   0.0101   0.0007  -0.0027   0.0011   0.00    4.5
2025/10/15 12:54:29.000      7202.6409      3125.0808        19.7760   1  10   0.0038   0.0042   0.0101   0.0023  -0.0029   0.0016   1.00    4.5
2025/10/15 12:54:30.000      7202.6438      3125.0826        19.7807   1  10   0.0040   0.0048   0.0102  -0.0010  -0.0028   0.0013   1.00    4.5
2025/10/15 12:54:31.000      7202.6398      3125.0838        19.7769   1  10   0.0041   0.0042   0.0099   0.0017  -0.0030   0.0018   0.00    4.5
2025/10/15 12:54:32.000      7202.6423      3125.0855        19.7759   1  10   0.0032   0.0049   0.0102   0.0022  -0.0030   0.0023   1.00    4.5
2025/10/15 12:54:33.000      7202.6404      3125.0824        19.7803   1  10   0.0030   0.0042   0.0101   0.0018  -0.0031   0.0018   1.00    4.6
2025/10/15 12:54:34.000      7202.6402      3125.0859        19.7699   1  10   0.0032   0.0033   0.0101   0.0020  -0.0030   0.0017   0.00    4.6
2025/10/15 12:54:35.000      7202.6404      3125.0862        19.7710   1  10   0.0032   0.0046   0.0102   0.0012  -0.0031   0.0013   1.00    4.6
2025/10/15 12:54:36.000      7202.6406      3125.0811        19.7792   1  10   0.0033   0.0037   0.0100   0.0022  -0.0031   0.0021   0.00    4.6
2025/10/15 12:54:37.000      7202.6420      3125.0808        19.7759   1  10   0.0033   0.0045   0.0102   0.0011  -0.0030   0.0017   1.00    4.6
2025/10/15 12:54:38.000      7202.6419      3125.0850        19.7762   1  10   0.0038   0.0047   0.0100  -0.0017  -0.0028   0.0013   0.00    4.6
2025/10/15 12:54:39.000      7202.6421      3125.0862        19.7729   1  10   0.0036   0.0042   0.0101   0.0013  -0.0031   0.0017   0.00    4.6
2025/10/15 12:54:40.000      7202.6430      3125.0861        19.7698   1  10   0.0035   0.0047   0.0101   0.0014  -0.0031   0.0019   1.00    4.6
2025/10/15 12:54:41.000      7202.6416      3125.0865        19.7691   1  10   0.0038   0.0043   0.0100   0.0020  -0.0030   0.0017   0.00    4.6
2025/10/15 12:54:42.000      7202.6403      3125.0825        19.7814   1  10   0.0042   0.0045   0.0100   0.0011  -0.0027   0.0010   0.00    4.6
2025/10/15 12:54:43.000      7202.6418      3125.0823        19.7766   1  10   0.0030   0.0036   0.0100   0.0009  -0.0031   0.0015   0.00    4.6
2025/10/15 12:54:44.000      7202.6421      3125.0817        19.7735   1  10   0.0038   0.0044   0.0101   0.0014  -0.0032   0.0018   1.00    4.6
2025/10/15 12:54:45.000      7202.6406      3125.0840        19.7711   1  10   0.0028   0.0044   0.0102   0.0025  -0.0027   0.0021   1.00    4.6
2025/10/15 12:54:46.000      7202.6415      3125.0819        19.7729   1  10   0.0030   0.0036   0.0099   0.0025  -0.0028   0.0020   0.00    4.7
2025/10/15 12:54:47.000      7202.6429      3125.0807        19.7749   1  10   0.0038   0.0049   0.0103  -0.0010  -0.0023   0.0011   1.00    4.7
2025/10/15 12:54:48.000      7202.6423      3125.0819        19.7812   1  10   0.0037   0.0047   0.0100   0.0018  -0.0025   0.0017   0.00    4.7
2025/10/15 12:54:49.000      7202.6411      3125.0830        19.7741   1  10   0.0035   0.0042   0.0101   0.0013  -0.0031   0.0014   0.00    4.7
2025/10/15 12:54:50.000      7202.6411      3125.0839        19.7771   1  10   0.0036   0.0045   0.0101   0.0009  -0.0028   0.0017   0.00    4.7
2025/10/15 12:54:51.000      7202.6420      3125.0833        19.7787   1  10   0.0035   0.0039   0.0102   0.0027  -0.0030   0.0017   1.00    4.7
2025/10/15 12:54:52.000      7202.6422      3125.0844        19.7792   1  10   0.0037   0.0043   0.0099  -0.0004  -0.0031   0.0011   0.00    4.7
2025/10/15 12:54:53.000      7202.6411      3125.0838        19.7796   1  10   0.0034   0.0050   0.0101  -0.0022  -0.0026   0.0012   0.00    4.7
2025/10/15 12:54:54.000      7202.6417      3125.0829        19.7782   1  10   0.0029   0.0038   0.0101   0.0013  -0.0031   0.0015   0.00    4.7
2025/10/15 12:54:55.000      7202.6418      3125.0826        19.7749   1  10   0.0030   0.0038   0.0102   0.0024  -0.0031   0.0018   1.00    4.7
2025/10/15 12:54:56.000      7202.6408      3125.0847        19.7759   1  10   0.0034   0.0045   0.0100   0.0003  -0.0028   0.0013   0.00    4.7
2025/10/15 12:54:57.000      7202.6410      3125.0839        19.7738   1  10   0.0036   0.0039   0.0103   0.0023  -0.0030   0.0018   1.00    4.7
2025/10/15 12:54:58.000      7202.6422      3125.0850        19.7768   1  10   0.0037   0.0044   0.0102   0.0012  -0.0029   0.0010   1.00    4.7
2025/10/15 12:54:59.000      7202.6398      3125.0827        19.7753   1  10   0.0027   0.0041   0.0100   0.0019  -0.0030   0.0020   0.00    4.8
2025/10/15 12:55:00.000      7202.6410      3125.0813        19.7761   1  10   0.0036   0.0036   0.0102   0.0023  -0.0031   0.0017   1.00    4.8
2025/10/15 12:55:01.000      7202.6415      3125.0834        19.7740   1  10   0.0033   0.0036   0.0099   0.0019  -0.0031   0.0021   0.00    4.8
2025/10/15 12:55:02.000      7202.6405      3125.0836        19.7746   1  10   0.0032   0.0044   0.0100   0.0024  -0.0029   0.0020   0.00    4.8
2025/10/15 12:55:03.000      7202.6392      3125.0837        19.7710   1  10   0.0030   0.0039   0.0102   0.0024  -0.0029   0.0022   1.00    4.8
2025/10/15 12:55:04.000      7202.6384      3125.0850        19.7691   1  10   0.0040   0.0046   0.0100  -0.0015  -0.0031   0.0014   0.00    4.8
2025/10/15 12:55:05.000      7202.6408      3125.0847        19.7760   1  10   0.0039   0.0050   0.0100   0.0010  -0.0025   0.0015   0.00    4.8
2025/10/15 12:55:06.000      7202.6381      3125.0819        19.7732   1  10   0.0039   0.0041   0.0100  -0.0010  -0.0028   0.0012   0.00    4.8
2025/10/15 12:55:07.000      7202.6404      3125.0819        19.7798   1  10   0.0040   0.0042   0.0102   0.0016  -0.0028   0.0010   0.00    4.8
2025/10/15 12:55:08.000      7202.6403      3125.0825        19.7672   1  10   0.0034   0.0046   0.0100   0.0019  -0.0026   0.0018   0.00    4.8
2025/10/15 12:55:09.000      7202.6406      3125.0777        19.7664   1  10   0.0040   0.0042   0.0102   0.0016  -0.0029   0.0015   1.00    4.8
2025/10/15 12:55:10.000      7202.6384      3125.0833        19.7761   1  10   0.0035   0.0041   0.0100   0.0017  -0.0031   0.0015   0.00    4.8
2025/10/15 12:55:11.000      7202.6384      3125.0833        19.7729   1  10   0.0039   0.0036   0.0100   0.0011  -0.0032   0.0015   0.00    4.8
2025/10/15 12:55:12.000      7202.6379      3125.0860        19.7741   1  10   0.0038   0.0040   0.0100   0.0012  -0.0026   0.0011   0.00    4.8
2025/10/15 12:55:13.000      7202.6397      3125.0831        19.7746   1  10   0.0034   0.0040   0.0102   0.0019  -0.0029   0.0016   1.00    4.9
2025/10/15 12:55:14.000      7202.6399      3125.0833        19.7733   1  10   0.0037   0.0046   0.0100   0.0011  -0.0027   0.0019   0.00    4.9
2025/10/15 12:55:15.000      7202.6387      3125.0814        19.7755   1  10   0.0034   0.0045   0.0101   0.0003  -0.0028   0.0010   0.00    4.9
2025/10/15 12:55:16.000      7202.6385      3125.0799        19.7697   1  10   0.0035   0.0034   0.0099   0.0027  -0.0033   0.0023   0.00    4.9
2025/10/15 12:55:17.000      7202.6389      3125.0811        19.7686   1  10   0.0034   0.0045   0.0101   0.0018  -0.0029   0.0018   1.00    4.9
2025/10/15 12:55:18.000      7202.6408      3125.0828        19.7780   1  10   0.0034   0.0042   0.0102   0.0012  -0.0030   0.0014   1.00    4.9
2025/10/15 12:55:19.000      7202.6405      3125.0865        19.7791   1  10   0.0034   0.0047   0.0100   0.0010  -0.0028   0.0018   0.00    4.9
2025/10/15 12:55:20.000      7202.6418      3125.0864        19.7760   1  10   0.0035   0.0042   0.0102   0.0007  -0.0031   0.0017   1.00    4.9
2025/10/15 12:55:21.000      7202.6390      3125.0826        19.7787   1  10   0.0036   0.0050   0.0100   0.0008  -0.0029   0.0016   0.00    4.9
2025/10/15 12:55:22.000      7202.6393      3125.0813        19.7776   1  10   0.0029   0.0041   0.0103   0.0026  -0.0027   0.0019   1.00    4.9
2025/10/15 12:55:23.000      7202.6419      3125.0802        19.7741   1  10   0.0034   0.0054   0.0102   0.0007  -0.0029   0.0021   1.00    4.9
2025/10/15 12:55:24.000      7202.6395      3125.0824        19.7834   1  10   0.0043   0.0040   0.0101   0.0010  -0.0026   0.0011   0.00    4.9
2025/10/15 12:55:25.000      7202.6413      3125.0812        19.7823   1  10   0.0035   0.0039   0.0102   0.0014  -0.0028   0.0010   1.00    4.9
2025/10/15 12:55:26.000      7202.6405      3125.0839        19.7802   1  10   0.0039   0.0049   0.0099   0.0015  -0.0030   0.0013   0.00    4.9
2025/10/15 12:55:27.000      7202.6413      3125.0829        19.7815   1  10   0.0037   0.0049   0.0102  -0.0010  -0.0025   0.0017   1.00    4.9
2025/10/15 12:55:28.000      7202.6400      3125.0810        19.7805   1  10   0.0032   0.0048   0.0099   0.0022  -0.0030   0.0020   0.00    4.9
2025/10/15 12:55:29.000      7202.6418      3125.0816        19.7828   1  10   0.0038   0.0032   0.0102   0.0019  -0.0028   0.0012   1.00    4.9
2025/10/15 12:55:30.000      7202.6419      3125.0806        19.7832   1  10   0.0034   0.0047   0.0103   0.0015  -0.0028   0.0016   1.00    4.9
2025/10/15 12:55:31.000      7202.6403      3125.0830        19.7813   1  10   0.0033   0.0040   0.0101   0.0020  -0.0033   0.0022   0.00    4.9
2025/10/15 12:55:32.000      7202.6424      3125.0841        19.7764   1  10   0.0033   0.0045   0.0102   0.0016  -0.0029   0.0015   1.00    4.9
2025/10/15 12:55:33.000      7202.6412      3125.0839        19.7843   1  10   0.0040   0.0043   0.0102   0.0020  -0.0030   0.0015   1.00    5.0
2025/10/15 12:55:34.000      7202.6408      3125.0817        19.7813   1  10   0.0044   0.0053   0.0101   0.0003  -0.0025   0.0010   1.00    5.0
2025/10/15 12:55:35.000      7202.6392      3125.0840        19.7755   1  10   0.0036   0.0039   0.0101   0.0022  -0.0028   0.0019   0.00    5.0
2025/10/15 12:55:36.000      7202.6401      3125.0839        19.7822   1  10   0.0038   0.0047   0.0100   0.0017  -0.0029   0.0016   0.00    5.0
2025/10/15 12:55:37.000      7202.6417      3125.0851        19.7807   1  10   0.0038   0.0040   0.0102   0.0025  -0.0029   0.0017   1.00    5.0
2025/10/15 12:55:38.000      7202.6418      3125.0825        19.7815   1  10   0.0037   0.0050   0.0101   0.0014  -0.0034   0.0022   1.00    5.0
2025/10/15 12:55:39.000      7202.6413      3125.0836        19.7808   1  10   0.0036   0.0040   0.0100   0.0019  -0.0032   0.0022   0.00    5.0
2025/10/15 12:55:40.000      7202.6424      3125.0827        19.7768   1  10   0.0032   0.0055   0.0099  -0.0010  -0.0025   0.0016   0.00    5.0
2025/10/15 12:55:41.000      7202.6412      3125.0826        19.7793   1  10   0.0022   0.0045   0.0100   0.0014  -0.0027   0.0021   0.00    5.0
2025/10/15 12:55:42.000      7202.6425      3125.0837        19.7806   1  10   0.0037   0.0047   0.0100   0.0011  -0.0027   0.0012   0.00    5.0
2025/10/15 12:55:43.000      7202.6444      3125.0792        19.7789   1  10   0.0035   0.0042   0.0103  -0.0009  -0.0027   0.0012   1.00    5.0
2025/10/15 12:55:44.000      7202.6426      3125.0823        19.7794   1  10   0.0034   0.0044   0.0099   0.0010  -0.0029   0.0018   0.00    5.0
2025/10/15 12:55:45.000      7202.6438      3125.0834        19.7789   1  10   0.0034   0.0041   0.0099   0.0012  -0.0030   0.0019   0.00    5.0
2025/10/15 12:55:46.000      7202.6409      3125.0828        19.7823   1  10   0.0042   0.0038   0.0100   0.0018  -0.0030   0.0019   0.00    5.0
2025/10/15 12:55:47.000      7202.6409      3125.0856        19.7840   1  10   0.0031   0.0037   0.0101   0.0011  -0.0031   0.0019   0.00    5.0
2025/10/15 12:55:48.000      7202.6398      3125.0849        19.7802   1  10   0.0035   0.0042   0.0100   0.0017  -0.0031   0.0009   0.00    5.0
2025/10/15 12:55:49.000      7202.6407      3125.0846        19.7791   1  10   0.0029   0.0038   0.0100   0.0012  -0.0031   0.0014   0.00    5.1
2025/10/15 12:55:50.000      7202.6425      3125.0841        19.7773   1  10   0.0031   0.0042   0.0102   0.0017  -0.0029   0.0019   1.00    5.1
