% (e/n/u-baseline=WGS84,Q=1:fix,2:float,3:sbas,4:dgps,5:single,6:ppp,ns=# of satellites)
%  UTC                   e-baseline(m)  n-baseline(m)  u-baseline(m)   Q  ns   sde(m)   sdn(m)   sdu(m)  sden(m)  sdnu(m)  sdue(m) age(s)  ratio
2025/10/15 12:48:41.000      6398.6006     -5239.2579       -54.2506   2  11   0.9552   1.1464   2.5531   0.4282  -0.4921   0.5901   0.00    0.0
2025/10/15 12:48:42.000      6398.6014     -5239.2557       -54.2502   2  11   0.7048   0.8486   1.8798   0.3137  -0.4097   0.4220   0.00    0.0
2025/10/15 12:48:43.000      6398.5971     -5239.2614       -54.2769   2  11   0.5841   0.7040   1.5559   0.2590  -0.3545   0.3452   0.00    0.0
2025/10/15 12:48:44.000      6398.6049     -5239.2542       -54.2458   2  11   0.5097   0.6145   1.3558   0.2253  -0.3173   0.2987   0.00    0.0
2025/10/15 12:48:45.000      6398.6007     -5239.2592       -54.2457   2  11   0.4579   0.5519   1.2161   0.2018  -0.2907   0.2666   0.00    0.0
2025/10/15 12:48:46.000      6398.6021     -5239.2597       -54.2340   2  11   0.4192   0.5050   1.1112   0.1841  -0.2708   0.2425   0.00    0.0
2025/10/15 12:48:47.000      6398.6051     -5239.2557       -54.2133   2  11   0.3888   0.4681   1.0286   0.1701  -0.2554   0.2236   0.00    0.0
2025/10/15 12:48:48.000      6398.6038     -5239.2623       -54.2485   2  11   0.3642   0.4380   0.9610   0.1587  -0.2432   0.2081   0.00    0.0
2025/10/15 12:48:49.000      6398.6011     -5239.2648       -54.2582   2  11   0.3437   0.4129   0.9044   0.1490  -0.2332   0.1951   0.00    0.0
2025/10/15 12:48:50.000      6398.6007     -5239.2717       -54.3013   2  11   0.3262   0.3914   0.8559   0.1408  -0.2251   0.1839   0.00    0.0
2025/10/15 12:48:51.000      6398.6011     -5239.2616       -54.2532   2  11   0.3111   0.3728   0.8137   0.1335  -0.2184   0.1742   0.00    0.0
2025/10/15 12:48:52.000      6398.6026     -5239.2600       -54.2338   2  11   0.2979   0.3565   0.7764   0.1271  -0.2127   0.1655   0.00    0.0
2025/10/15 12:48:53.000      6398.6035     -5239.2566       -54.2276   2  11   0.2862   0.3419   0.7432   0.1214  -0.2078   0.1577   0.00    0.0
2025/10/15 12:48:54.000      6398.6007     -5239.2552       -54.2046   2  11   0.2757   0.3289   0.7132   0.1162  -0.2037   0.1506   0.00    1.3
2025/10/15 12:48:55.000      6398.5986     -5239.2544       -54.1905   2  11   0.2663   0.3171   0.6860   0.1114  -0.2001   0.1442   0.00    1.3
2025/10/15 12:48:56.000      6398.5979     -5239.2513       -54.1602   2  11   0.2577   0.3064   0.6611   0.1071  -0.1970   0.1382   0.00    1.2
2025/10/15 12:48:57.000      6398.5970     -5239.2574       -54.1791   2  11   0.2499   0.2965   0.6382   0.1030  -0.1942   0.1328   0.00    1.1
2025/10/15 12:48:58.000      6398.5989     -5239.2637       -54.1679   2  11   0.2427   0.2874   0.6170   0.0992  -0.1918   0.1276   0.00    1.1
2025/10/15 12:48:59.000      6398.5970     -5239.2568       -54.1539   2  11   0.2361   0.2790   0.5974   0.0957  -0.1896   0.1229   0.00    1.4
2025/10/15 12:49:00.000      6398.5962     -5239.2533       -54.1308   2  11   0.2300   0.2712   0.5790   0.0924  -0.1876   0.1184   0.00    1.3
2025/10/15 12:49:01.000      6398.5892     -5239.2635       -54.1536   2  11   0.2242   0.2639   0.5618   0.0893  -0.1858   0.1142   0.00    1.4
2025/10/15 12:49:02.000      6398.5804     -5239.2692       -54.1626   2  11   0.2189   0.2571   0.5457   0.0864  -0.1841   0.1103   0.00    1.3
2025/10/15 12:49:03.000      6398.5799     -5239.2648       -54.1653   2  11   0.2139   0.2507   0.5305   0.0836  -0.1826   0.1066   0.00    1.3
2025/10/15 12:49:04.000      6398.5796     -5239.2580       -54.1742   2  11   0.2092   0.2447   0.5162   0.0809  -0.1811   0.1030   0.00    1.6
2025/10/15 12:49:05.000      6398.7151     -5239.2524       -54.7080   1  11   0.0035   0.0032   0.0096   0.0011  -0.0023   0.0013   0.00    3.7
2025/10/15 12:49:06.000      6398.7157     -5239.2535       -54.7097   1  11   0.0035   0.0047   0.0093   0.0020  -0.0019   0.0023   0.00    3.7
2025/10/15 12:49:07.000      6398.7160     -5239.2518       -54.7117   1  11   0.0029   0.0039   0.0093   0.0015  -0.0025   0.0019   0.00    3.7
2025/10/15 12:49:08.000      6398.7161     -5239.2523       -54.7109   1  11   0.0038   0.0048   0.0093  -0.0012  -0.0019   0.0022   0.00    3.7
2025/10/15 12:49:09.000      6398.7167     -5239.2519       -54.7072   1  11   0.0032   0.0040   0.0093   0.0011  -0.0023   0.0024   0.00    3.7
2025/10/15 12:49:10.000      6398.7166     -5239.2529       -54.7104   1  11   0.0037   0.0044   0.0093   0.0010  -0.0022   0.0019   0.00    3.7
2025/10/15 12:49:11.000      6398.7176     -5239.2531       -54.7157   1  11   0.0036   0.0052   0.0094   0.0004  -0.0021   0.0017   0.00    3.7
2025/10/15 12:49:12.000      6398.7171     -5239.2507       -54.7129   1  11   0.0037   0.0045   0.0093   0.0018  -0.0028   0.0025   0.00    3.8
2025/10/15 12:49:13.000      6398.7177     -5239.2509       -54.7106   1  11   0.0029   0.0038   0.0095   0.0013  -0.0022   0.0024   1.00    3.7
2025/10/15 12:49:14.000      6398.7162     -5239.2528       -54.7104   1  11   0.0038   0.0043   0.0094   0.0008  -0.0025   0.0014   0.00    3.8
2025/10/15 12:49:15.000      6398.7164     -5239.2519       -54.7085   1  11   0.0030   0.0033   0.0094  -0.0004  -0.0026   0.0018   0.00    6.7
2025/10/15 12:49:16.000      6398.7177     -5239.2502       -54.7103   1  11   0.0042   0.0040   0.0094   0.0019  -0.0019   0.0016   0.00    6.8
2025/10/15 12:49:17.000      6398.7170     -5239.2501       -54.7072   1  11   0.0029   0.0044   0.0093   0.0021  -0.0020   0.0019   0.00    6.8
2025/10/15 12:49:18.000      6398.7177     -5239.2503       -54.7085   1  11   0.0032   0.0042   0.0095   0.0018  -0.0018   0.0016   0.00    6.9
2025/10/15 12:49:19.000      6398.7178     -5239.2496       -54.7073   1  11   0.0039   0.0041   0.0093  -0.0018  -0.0026   0.0021   0.00    6.9
2025/10/15 12:49:20.000      6398.7170     -5239.2498       -54.7079   1  11   0.0034   0.0044   0.0094  -0.0005  -0.0023   0.0017   0.00    6.9
2025/10/15 12:49:21.000      6398.7176     -5239.2526       -54.7073   1  11   0.0037   0.0040   0.0094   0.0013  -0.0023   0.0018   0.00    6.9
2025/10/15 12:49:22.000      6398.7157     -5239.2515       -54.7089   1  11   0.0034   0.0042   0.0093   0.0017  -0.0023   0.0020   0.00    6.9
2025/10/15 12:49:23.000      6398.7177     -5239.2504       -54.7068   1  11   0.0032   0.0050   0.0093   0.0017  -0.0024   0.0022   0.00    6.9
2025/10/15 12:49:24.000      6398.7175     -5239.2510       -54.7105   1  11   0.0031   0.0036   0.0095  -0.0008  -0.0024   0.0018   0.00    6.9
2025/10/15 12:49:25.000      6398.7184     -5239.2508       -54.7054   1  11   0.0030   0.0044   0.0093   0.0008  -0.0019   0.0023   0.00    6.9
2025/10/15 12:49:26.000      6398.7181     -5239.2506       -54.7068   1  11   0.0041   0.0042   0.0094   0.0007  -0.0024   0.0016   0.00    6.9
2025/10/15 12:49:27.000      6398.7180     -5239.2496       -54.7071   1  11   0.0035   0.0043   0.0093  -0.0021  -0.0025   0.0022   0.00    6.9
2025/10/15 12:49:28.000      6398.7178     -5239.2511       -54.7050   1  11   0.0039   0.0036   0.0092   0.0022  -0.0025   0.0017   0.00    6.9
2025/10/15 12:49:29.000      6398.7178     -5239.2519       -54.7114   1  11   0.0034   0.0038   0.0094   0.0024  -0.0023   0.0012   0.00    6.9
2025/10/15 12:49:30.000      6398.7178     -5239.2514       -54.7116   1  11   0.0027   0.0035   0.0094   0.0019  -0.0025   0.0022   0.00    6.9
2025/10/15 12:49:31.000      6398.7164     -5239.2516       -54.7104   1  11   0.0042   0.0038   0.0094   0.0013  -0.0018   0.0019   0.00    6.9
2025/10/15 12:49:32.000      6398.7183     -5239.2503       -54.7129   1  11   0.0035   0.0050   0.0092   0.0022  -0.0020   0.0026   0.00    6.9
2025/10/15 12:49:33.000      6398.7176     -5239.2514       -54.7160   1  11   0.0033   0.0044   0.0093   0.0017  -0.0021   0.0020   0.00    6.9
2025/10/15 12:49:34.000      6398.7182     -5239.2511       -54.7139   1  11   0.0031   0.0045   0.0092   0.0009  -0.0020   0.0024   0.00    6.9
2025/10/15 12:49:35.000      6398.7185     -5239.2523       -54.7106   1  11   0.0036   0.0039   0.0095  -0.0009  -0.0020   0.0016   0.00    6.9
2025/10/15 12:49:36.000      6398.7193     -5239.2533       -54.7095   1  11   0.0037   0.0041   0.0095   0.0013  -0.0020   0.0017   0.00    6.9
2025/10/15 12:49:37.000      6398.7197     -5239.2509       -54.7141   1  11   0.0029   0.0044   0.0094   0.0022  -0.0022   0.0020   0.00    6.8
2025/10/15 12:49:38.000      6398.7189     -5239.2523       -54.7123   1  11   0.0032   0.0048   0.0094   0.0013  -0.0019   0.0019   0.00    6.8
2025/10/15 12:49:39.000      6398.7191     -5239.2509       -54.7146   1  11   0.0034   0.0041   0.0093   0.0007  -0.0019   0.0019   0.00    6.8
2025/10/15 12:49:40.000      6398.7185     -5239.2530       -54.7145   1  11   0.0027   0.0040   0.0092   0.0026  -0.0023   0.0020   0.00    6.8
2025/10/15 12:49:41.000      6398.7188     -5239.2526       -54.7116   1  11   0.0029   0.0030   0.0094   0.0017  -0.0021   0.0018   0.00    6.8
2025/10/15 12:49:42.000      6398.7182     -5239.2522       -54.7076   1  11   0.0036   0.0044   0.0095   0.0022  -0.0023   0.0022   0.00    6.8
2025/10/15 12:49:43.000      6398.7202     -5239.2519       -54.7079   1  11   0.0026   0.0036   0.0093   0.0030  -0.0025   0.0024   0.00    6.8
2025/10/15 12:49:44.000      6398.7198     -5239.2516       -54.7096   1  11   0.0032   0.0033   0.0093   0.0021  -0.0028   0.0023   0.00    6.8
2025/10/15 12:49:45.000      6398.7196     -5239.2494       -54.7106   1  11   0.0027   0.0046   0.0093   0.0025  -0.0022   0.0020   0.00    6.7
2025/10/15 12:49:46.000      6398.7192     -5239.2509       -54.7139   1  11   0.0032   0.0040   0.0093   0.0022  -0.0023   0.0021   0.00    6.7
2025/10/15 12:49:47.000      6398.7187     -5239.2521       -54.7105   1  11   0.0037   0.0047   0.0094   0.0013  -0.0023   0.0018   0.00    6.7
2025/10/15 12:49:48.000      6398.7192     -5239.2511       -54.7132   1  11   0.0027   0.0038   0.0092   0.0019  -0.0023   0.0023   0.00    6.7
2025/10/15 12:49:49.000      6398.7196     -5239.2491       -54.7118   1  11   0.0025   0.0037   0.0095   0.0023  -0.0027   0.0024   0.00    6.6
2025/10/15 12:49:50.000      6398.7189     -5239.2513       -54.7060   1  11   0.0033   0.0040   0.0094   0.0023  -0.0023   0.0017   0.00    6.6
2025/10/15 12:49:51.000      6398.7190     -5239.2529       -54.7108   1  11   0.0032   0.0039   0.0094   0.0005  -0.0027   0.0018   0.00    6.6
2025/10/15 12:49:52.000      6398.7198     -5239.2515       -54.7115   1  11   0.0036   0.0042   0.0093   0.0021  -0.0023   0.0019   0.00    6.6
2025/10/15 12:49:53.000      6398.7208     -5239.2515       -54.7090   1  11   0.0038   0.0042   0.0094   0.0009  -0.0019   0.0018   0.00    6.6
2025/10/15 12:49:54.000      6398.7195     -5239.2508       -54.7118   1  11   0.0035   0.0042   0.0095   0.0018  -0.0018   0.0019   0.00    6.6
2025/10/15 12:49:55.000      6398.7196     -5239.2502       -54.7129   1  11   0.0031   0.0049   0.0094  -0.0014  -0.0019   0.0022   0.00    6.6
2025/10/15 12:49:56.000      6398.7204     -5239.2513       -54.7079   1  11   0.0034   0.0050   0.0094  -0.0012  -0.0018   0.0018   0.00    6.6
2025/10/15 12:49:57.000      6398.7215     -5239.2478       -54.7116   1  11   0.0034   0.0036   0.0093   0.0025  -0.0019   0.0020   0.00    6.5
2025/10/15 12:49:58.000      6398.7221     -5239.2502       -54.7144   1  11   0.0038   0.0046   0.0094  -0.0007  -0.0022   0.0019   0.00    6.5
2025/10/15 12:49:59.000      6398.7213     -5239.2485       -54.7153   1  11   0.0039   0.0046   0.0093   0.0024  -0.0020   0.0019   0.00    6.5
2025/10/15 12:50:00.000      6398.7206     -5239.2503       -54.7090   1  11   0.0038   0.0041   0.0094   0.0003  -0.0021   0.0020   0.00    6.5
2025/10/15 12:50:01.000      6398.7219     -5239.2479       -54.7118   1  11   0.0026   0.0030   0.0094   0.0035  -0.0027   0.0025   0.00    6.5
2025/10/15 12:50:02.000      6398.7216     -5239.2500       -54.7124   1  11   0.0030   0.0039   0.0094   0.0012  -0.0024   0.0023   0.00    6.5
2025/10/15 12:50:03.000      6398.7205     -5239.2498       -54.7127   1  11   0.0039   0.0047   0.0094  -0.0024  -0.0025   0.0021   0.00    6.5
2025/10/15 12:50:04.000      6398.7221     -5239.2502       -54.7153   1  11   0.0029   0.0041   0.0093   0.0027  -0.0023   0.0022   0.00    6.4
2025/10/15 12:50:05.000      6398.7227     -5239.2483       -54.7123   1  11   0.0031   0.0045   0.0093   0.0018  -0.0026   0.0023   0.00    6.4
2025/10/15 12:50:06.000      6398.7236     -5239.2495       -54.7068   1  11   0.0036   0.0040   0.0094  -0.0011  -0.0027   0.0023   0.00    6.4
2025/10/15 12:50:07.000      6398.7230     -5239.2480       -54.7125   1  11   0.0039   0.0045   0.0093   0.0015  -0.0020   0.0020   0.00    6.4
2025/10/15 12:50:08.000      6398.7230     -5239.2490       -54.7125   1  11   0.0042   0.0042   0.0093   0.0010  -0.0020   0.0015   0.00    6.4
2025/10/15 12:50:09.000      6398.7234     -5239.2485       -54.7160   1  11   0.0033   0.0045   0.0094   0.0018  -0.0024   0.0019   0.00    6.4
2025/10/15 12:50:10.000      6398.7234     -5239.2488       -54.7120   1  11   0.0019   0.0041   0.0093   0.0022  -0.0025   0.0022   0.00    6.4
2025/10/15 12:50:11.000      6398.7235     -5239.2485       -54.7107   1  11   0.0040   0.0051   0.0094   0.0006  -0.0024   0.0021   0.00    6.4
2025/10/15 12:50:12.000      6398.7242     -5239.2479       -54.7151   1  11   0.0033   0.0041   0.0095  -0.0012  -0.0020   0.0021   0.00    6.4
2025/10/15 12:50:13.000      6398.7222     -5239.2485       -54.7122   1  11   0.0030   0.0044   0.0094   0.0015  -0.0022   0.0025   0.00    6.4
2025/10/15 12:50:14.000      6398.7238     -5239.2471       -54.7114   1  11   0.0034   0.0047   0.0093   0.0009  -0.0025   0.0020   0.00    6.4
2025/10/15 12:50:15.000      6398.7228     -5239.2481       -54.7152   1  11   0.0043   0.0041   0.0093  -0.0018  -0.0022   0.0017   0.00    6.4
2025/10/15 12:50:16.000      6398.7229     -5239.2472       -54.7153   1  11   0.0028   0.0038   0.0093   0.0013  -0.0027   0.0027   0.00    6.4
2025/10/15 12:50:17.000      6398.7255     -5239.2480       -54.7162   1  11   0.0032   0.0045   0.0094   0.0010  -0.0023   0.0025   0.00    6.4
2025/10/15 12:50:18.000      6398.7239     -5239.2488       -54.7121   1  11   0.0026   0.0036   0.0093   0.0025  -0.0026   0.0026   0.00    6.3
2025/10/15 12:50:19.000      6398.7243     -5239.2488       -54.7102   1  11   0.0031   0.0044   0.0094   0.0011  -0.0025   0.0020   0.00    6.3
2025/10/15 12:50:20.000      6398.7241     -5239.2489       -54.7116   1  11   0.0038   0.0040   0.0094   0.0017  -0.0024   0.0021   0.00    6.3
2025/10/15 12:50:21.000      6398.7233     -5239.2492       -54.7140   1  11   0.0035   0.0047   0.0093   0.0017  -0.0025   0.0022   0.00    6.3
2025/10/15 12:50:22.000      6398.7252     -5239.2489       -54.7159   1  11   0.0034   0.0042   0.0094   0.0018  -0.0027   0.0020   0.00    6.3
2025/10/15 12:50:23.000      6398.7244     -5239.2485       -54.7174   1  11   0.0038   0.0043   0.0093   0.0008  -0.0019   0.0018   0.00    6.3
2025/10/15 12:50:24.000      6398.7258     -5239.2483       -54.7182   1  11   0.0034   0.0043   0.0094   0.0011  -0.0019   0.0020   0.00    6.3
2025/10/15 12:50:25.000      6398.7252     -5239.2481       -54.7169   1  11   0.0041   0.0041   0.0094  -0.0015  -0.0022   0.0012   0.00    6.3
2025/10/15 12:50:26.000      6398.7263     -5239.2477       -54.7159   1  11   0.0037   0.0048   0.0092   0.0008  -0.0018   0.0021   0.00    6.3
2025/10/15 12:50:27.000      6398.7253     -5239.2495       -54.7171   1  11   0.0032   0.0040   0.0094   0.0020  -0.0021   0.0023   0.00    6.3
2025/10/15 12:50:28.000      6398.7258     -5239.2470       -54.7150   1  11   0.0039   0.0043   0.0095   0.0010  -0.0025   0.0015   0.00    6.2
2025/10/15 12:50:29.000      6398.7263     -5239.2467       -54.7180   1  11   0.0030   0.0043   0.0094  -0.0013  -0.0024   0.0025   0.00    6.2
2025/10/15 12:50:30.000      6398.7269     -5239.2462       -54.7199   1  11   0.0035   0.0037   0.0094   0.0009  -0.0021   0.0020   0.00    6.2
2025/10/15 12:50:31.000      6398.7249     -5239.2479       -54.7165   1  11   0.0041   0.0047   0.0094  -0.0016  -0.0024   0.0016   0.00    6.2
2025/10/15 12:50:32.000      6398.7245     -5239.2474       -54.7122   1  11   0.0034   0.0034   0.0093   0.0026  -0.0029   0.0022   0.00    6.2
2025/10/15 12:50:33.000      6398.7255     -5239.2477       -54.7126   1  11   0.0040   0.0041   0.0093   0.0021  -0.0025   0.0020   0.00    6.2
2025/10/15 12:50:34.000      6398.7252     -5239.2464       -54.7193   1  11   0.0040   0.0041   0.0095   0.0015  -0.0020   0.0016   0.00    6.2
2025/10/15 12:50:35.000      6398.7253     -5239.2478       -54.7149   1  11   0.0037   0.0035   0.0094   0.0025  -0.0024   0.0017   0.00    6.2
2025/10/15 12:50:36.000      6398.7261     -5239.2477       -54.7183   1  11   0.0026   0.0043   0.0095   0.0015  -0.0025   0.0024   0.00    6.2
2025/10/15 12:50:37.000      6398.7281     -5239.2447       -54.7195   1  11   0.0040   0.0041   0.0094   0.0017  -0.0020   0.0017   0.00    6.2
2025/10/15 12:50:38.000      6398.7270     -5239.2460       -54.7225   1  11   0.0038   0.0043   0.0093   0.0026  -0.0027   0.0022   0.00    6.2
2025/10/15 12:50:39.000      6398.7247     -5239.2463       -54.7214   1  11   0.0020   0.0031   0.0093   0.0034  -0.0030   0.0026   0.00    6.2
2025/10/15 12:50:40.000      6398.7274     -5239.2462       -54.7214   1  11   0.0041   0.0043   0.0094   0.0009  -0.0022   0.0021   0.00    6.2
2025/10/15 12:50:41.000      6398.7261     -5239.2450       -54.7205   1  11   0.0029   0.0043   0.0094   0.0023  -0.0026   0.0029   0.00    6.2
2025/10/15 12:50:42.000      6398.7254     -5239.2447       -54.7214   1  11   0.0032   0.0040   0.0093   0.0021  -0.0020   0.0019   0.00    6.2
2025/10/15 12:50:43.000      6398.7266     -5239.2447       -54.7209   1  11   0.0040   0.0041   0.0097  -0.0007  -0.0022   0.0014   1.00    6.2
2025/10/15 12:50:44.000      6398.7264     -5239.2459       -54.7211   1  11   0.0038   0.0044   0.0093  -0.0009  -0.0026   0.0021   0.00    6.2
2025/10/15 12:50:45.000      6398.7255     -5239.2452       -54.7235   1  11   0.0033   0.0037   0.0094   0.0020  -0.0023   0.0022   0.00    6.2
2025/10/15 12:50:46.000      6398.7260     -5239.2453       -54.7244   1  11   0.0030   0.0038   0.0094   0.0018  -0.0021   0.0023   0.00    6.2
2025/10/15 12:50:47.000      6398.7250     -5239.2435       -54.7287   1  11   0.0031   0.0038   0.0095  -0.0013  -0.0022   0.0022   0.00    6.2
2025/10/15 12:50:48.000      6398.7274     -5239.2421       -54.7294   1  11   0.0033   0.0044   0.0094   0.0019  -0.0020   0.0021   0.00    6.2
2025/10/15 12:50:49.000      6398.7259     -5239.2453       -54.7296   1  11   0.0029   0.0040   0.0094   0.0021  -0.0024   0.0023   0.00    6.2
2025/10/15 12:50:50.000      6398.7270     -5239.2441       -54.7294   1  11   0.0029   0.0042   0.0093   0.0019  -0.0024   0.0023   0.00    6.2
2025/10/15 12:50:51.000      6398.7271     -5239.2425       -54.7301   1  11   0.0040   0.0045   0.0093   0.0006  -0.0022   0.0016   0.00    6.2
2025/10/15 12:50:52.000      6398.7260     -5239.2441       -54.7292   1  11   0.0035   0.0047   0.0094   0.0012  -0.0021   0.0023   0.00    6.2
2025/10/15 12:50:53.000      6398.7253     -5239.2445       -54.7267   1  11   0.0036   0.0039   0.0096   0.0020  -0.0016   0.0014   0.00    6.2
2025/10/15 12:50:54.000      6398.7259     -5239.2435       -54.7306   1  11   0.0038   0.0051   0.0094  -0.0018  -0.0021   0.0019   0.00    6.2
2025/10/15 12:50:55.000      6398.7273     -5239.2434       -54.7326   1  11   0.0036   0.0042   0.0095   0.0006  -0.0025   0.0020   0.00    6.3
2025/10/15 12:50:56.000      6398.7244     -5239.2432       -54.7323   1  11   0.0030   0.0044   0.0094   0.0015  -0.0024   0.0021   0.00    6.3
2025/10/15 12:50:57.000      6398.7264     -5239.2438       -54.7247   1  11   0.0035   0.0043   0.0094   0.0015  -0.0021   0.0022   0.00    6.3
2025/10/15 12:50:58.000      6398.7250     -5239.2423       -54.7275   1  11   0.0037   0.0043   0.0093   0.0020  -0.0026   0.0021   0.00    6.3
2025/10/15 12:50:59.000      6398.7243     -5239.2429       -54.7327   1  11   0.0034   0.0044   0.0093   0.0014  -0.0026   0.0024   0.00    6.3
2025/10/15 12:51:00.000      6398.7251     -5239.2428       -54.7280   1  11   0.0032   0.0041   0.0094   0.0010  -0.0026   0.0018   0.00    6.3
2025/10/15 12:51:01.000      6398.7253     -5239.2430       -54.7286   1  11   0.0026   0.0041   0.0093   0.0023  -0.0025   0.0021   0.00    6.3
2025/10/15 12:51:02.000      6398.7246     -5239.2437       -54.7324   1  11   0.0033   0.0038   0.0095  -0.0009  -0.0023   0.0018   0.00    6.3
2025/10/15 12:51:03.000      6398.7260     -5239.2430       -54.7326   1  11   0.0022   0.0046   0.0093   0.0019  -0.0027   0.0024   0.00    6.3
2025/10/15 12:51:04.000      6398.7226     -5239.2416       -54.7311   1  11   0.0031   0.0037   0.0094   0.0017  -0.0025   0.0019   0.00    6.3
2025/10/15 12:51:05.000      6398.7250     -5239.2428       -54.7287   1  11   0.0030   0.0038   0.0094   0.0025  -0.0022   0.0021   0.00    6.3
2025/10/15 12:51:06.000      6398.7256     -5239.2440       -54.7318   1  11   0.0038   0.0048   0.0094   0.0017  -0.0011   0.0019   0.00    6.3
2025/10/15 12:51:07.000      6398.7249     -5239.2442       -54.7303   1  11   0.0033   0.0037   0.0095   0.0017  -0.0026   0.0019   0.00    6.3
2025/10/15 12:51:08.000      6398.7256     -5239.2434       -54.7295   1  11   0.0033   0.0048   0.0094  -0.0003  -0.0022   0.0023   0.00    6.3
2025/10/15 12:51:09.000      6398.7261     -5239.2421       -54.7275   1  11   0.0035   0.0041   0.0094   0.0013  -0.0023   0.0022   0.00    6.3
2025/10/15 12:51:10.000      6398.7253     -5239.2437       -54.7280   1  11   0.0025   0.0041   0.0094   0.0023  -0.0025   0.0025   0.00    6.3
2025/10/15 12:51:11.000      6398.7256     -5239.2417       -54.7314   1  11   0.0038   0.0040   0.0095   0.0013  -0.0028   0.0018   0.00    6.3
2025/10/15 12:51:12.000      6398.7262     -5239.2427       -54.7286   1  11   0.0037   0.0046   0.0094   0.0021  -0.0024   0.0025   0.00    6.3
2025/10/15 12:51:13.000      6398.7268     -5239.2407       -54.7269   1  11   0.0036   0.0048   0.0094  -0.0005  -0.0020   0.0018   0.00    6.3
2025/10/15 12:51:14.000      6398.7263     -5239.2433       -54.7247   1  11   0.0035   0.0040   0.0094   0.0023  -0.0027   0.0016   0.00    6.3
2025/10/15 12:51:15.000      6398.7261     -5239.2411       -54.7294   1  11   0.0043   0.0051   0.0094  -0.0016  -0.0024   0.0019   0.00    6.3
2025/10/15 12:51:16.000      6398.7268     -5239.2417       -54.7280   1  11   0.0034   0.0049   0.0093   0.0016  -0.0021   0.0022   0.00    6.3
2025/10/15 12:51:17.000      6398.7256     -5239.2429       -54.7313   1  11   0.0038   0.0046   0.0094  -0.0016  -0.0019   0.0019   0.00    6.3
2025/10/15 12:51:18.000      6398.7262     -5239.2421       -54.7299   1  11   0.0027   0.0048   0.0094   0.0013  -0.0022   0.0020   0.00    6.3
2025/10/15 12:51:19.000      6398.7268     -5239.2414       -54.7301   1  11   0.0031   0.0035   0.0096   0.0021  -0.0026   0.0022   0.00    6.3
2025/10/15 12:51:20.000      6398.7274     -5239.2435       -54.7278   1  11   0.0038   0.0052   0.0094  -0.0008  -0.0016   0.0020   0.00    6.3
2025/10/15 12:51:21.000      6398.7279     -5239.2446       -54.7275   1  11   0.0034   0.0046   0.0095   0.0017  -0.0023   0.0022   1.00    6.3
2025/10/15 12:51:22.000      6398.7273     -5239.2434       -54.7244   1  11   0.0030   0.0031   0.0094   0.0011  -0.0024   0.0011   0.00    6.3
2025/10/15 12:51:23.000      6398.7272     -5239.2427       -54.7249   1  11   0.0032   0.0043   0.0094   0.0020  -0.0019   0.0021   0.00    6.3
2025/10/15 12:51:24.000      6398.7263     -5239.2433       -54.7254   1  11   0.0030   0.0038   0.0095   0.0019  -0.0023   0.0022   0.00    6.3
2025/10/15 12:51:25.000      6398.7266     -5239.2443       -54.7258   1  11   0.0039   0.0038   0.0094   0.0021  -0.0022   0.0024   0.00    6.3
2025/10/15 12:51:26.000      6398.7278     -5239.2433       -54.7285   1  11   0.0035   0.0046   0.0095  -0.0015  -0.0023   0.0021   0.00    6.4
2025/10/15 12:51:27.000      6398.7278     -5239.2444       -54.7255   1  11   0.0030   0.0043   0.0093   0.0014  -0.0026   0.0025   0.00    6.4
2025/10/15 12:51:28.000      6398.7269     -5239.2429       -54.7229   1  11   0.0038   0.0038   0.0094   0.0025  -0.0022   0.0020   0.00    6.4
2025/10/15 12:51:29.000      6398.7274     -5239.2427       -54.7265   1  11   0.0039   0.0045   0.0093  -0.0005  -0.0012   0.0022   0.00    6.4
2025/10/15 12:51:30.000      6398.7273     -5239.2446       -54.7287   1  11   0.0040   0.0048   0.0095   0.0012  -0.0022   0.0010   0.00    6.4
2025/10/15 12:51:31.000      6398.7270     -5239.2439       -54.7241   1  11   0.0033   0.0044   0.0094   0.0020  -0.0025   0.0022   0.00    6.4
2025/10/15 12:51:32.000      6398.7282     -5239.2438       -54.7271   1  11   0.0030   0.0046   0.0094   0.0014  -0.0023   0.0020   0.00    6.4
2025/10/15 12:51:33.000      6398.7266     -5239.2444       -54.7265   1  11   0.0043   0.0051   0.0094  -0.0015  -0.0018   0.0018   0.00    6.4
2025/10/15 12:51:34.000      6398.7270     -5239.2434       -54.7276   1  11   0.0036   0.0043   0.0095  -0.0006  -0.0023   0.0017   0.00    6.4
2025/10/15 12:51:35.000      6398.7274     -5239.2435       -54.7252   1  11   0.0035   0.0046   0.0094   0.0004  -0.0026   0.0026   0.00    6.4
2025/10/15 12:51:36.000      6398.7282     -5239.2451       -54.7260   1  11   0.0040   0.0033   0.0095  -0.0010  -0.0021   0.0014   0.00    6.4
2025/10/15 12:51:37.000      6398.7274     -5239.2438       -54.7276   1  11   0.0034   0.0045   0.0094   0.0007  -0.0021   0.0020   0.00    6.4
2025/10/15 12:51:38.000      6398.7263     -5239.2427       -54.7283   1  11   0.0032   0.0035   0.0095   0.0013  -0.0024   0.0023   0.00    6.4
2025/10/15 12:51:39.000      6398.7260     -5239.2440       -54.7223   1  11   0.0038   0.0042   0.0094   0.0022  -0.0020   0.0017   0.00    6.4
2025/10/15 12:51:40.000      6398.7267     -5239.2445       -54.7245   1  11   0.0035   0.0041   0.0094   0.0024  -0.0027   0.0025   0.00    6.4
2025/10/15 12:51:41.000      6398.7271     -5239.2450       -54.7242   1  11   0.0041   0.0045   0.0095   0.0017  -0.0020   0.0013   0.00    6.4
2025/10/15 12:51:42.000      6398.7258     -5239.2458       -54.7212   1  11   0.0036   0.0048   0.0094   0.0013  -0.0022   0.0021   0.00    6.5
2025/10/15 12:51:43.000      6398.7268     -5239.2447       -54.7263   1  11   0.0041   0.0041   0.0093   0.0021  -0.0028   0.0020   0.00    6.5
2025/10/15 12:51:44.000      6398.7269     -5239.2446       -54.7276   1  11   0.0036   0.0042   0.0096  -0.0012  -0.0024   0.0020   1.00    6.5
2025/10/15 12:51:45.000      6398.7264     -5239.2455       -54.7221   1  11   0.0039   0.0042   0.0094   0.0003  -0.0020   0.0015   0.00    6.5
2025/10/15 12:51:46.000      6398.7266     -5239.2425       -54.7241   1  11   0.0029   0.0044   0.0094   0.0016  -0.0024   0.0025   0.00    6.5
2025/10/15 12:51:47.000      6398.7265     -5239.2432       -54.7269   1  11   0.0021   0.0038   0.0094   0.0023  -0.0026   0.0020   0.00    6.5
2025/10/15 12:51:48.000      6398.7263     -5239.2435       -54.7259   1  11   0.0023   0.0038   0.0093   0.0018  -0.0023   0.0024   0.00    6.5
2025/10/15 12:51:49.000      6398.7263     -5239.2431       -54.7237   1  11   0.0044   0.0045   0.0094   0.0006  -0.0025   0.0020   0.00    6.5
2025/10/15 12:51:50.000      6398.7253     -5239.2456       -54.7249   1  11   0.0031   0.0035   0.0095   0.0024  -0.0026   0.0025   0.00    6.5
2025/10/15 12:51:51.000      6398.7259     -5239.2450       -54.7233   1  11   0.0033   0.0036   0.0093   0.0026  -0.0029   0.0023   0.00    6.5
2025/10/15 12:51:52.000      6398.7265     -5239.2427       -54.7234   1  11   0.0033   0.0041   0.0094   0.0006  -0.0025   0.0022   0.00    6.5
2025/10/15 12:51:53.000      6398.7269     -5239.2440       -54.7241   1  11   0.0031   0.0040   0.0095   0.0010  -0.0025   0.0021   0.00    6.6
2025/10/15 12:51:54.000      6398.7254     -5239.2453       -54.7261   1  11   0.0037   0.0043   0.0095  -0.0010  -0.0023   0.0019   0.00    6.6
2025/10/15 12:51:55.000      6398.7259     -5239.2437       -54.7255   1  11   0.0032   0.0042   0.0095   0.0015  -0.0024   0.0024   0.00    6.6
2025/10/15 12:51:56.000      6398.7255     -5239.2433       -54.7249   1  11   0.0039   0.0047   0.0095  -0.0011  -0.0016   0.0021   0.00    6.6
2025/10/15 12:51:57.000      6398.7261     -5239.2441       -54.7275   1  11   0.0037   0.0047   0.0094  -0.0011  -0.0021   0.0015   0.00    6.6
2025/10/15 12:51:58.000      6398.7264     -5239.2453       -54.7269   1  11   0.0023   0.0038   0.0094   0.0018  -0.0025   0.0022   0.00    6.6
2025/10/15 12:51:59.000      6398.7252     -5239.2455       -54.7261   1  11   0.0033   0.0043   0.0095   0.0019  -0.0020   0.0022   0.00    6.6
2025/10/15 12:52:00.000      6398.7254     -5239.2463       -54.7249   1  11   0.0039   0.0039   0.0094  -0.0016  -0.0021   0.0018   0.00    6.6
2025/10/15 12:52:01.000      6398.7251     -5239.2474       -54.7255   1  11   0.0035   0.0040   0.0096   0.0013  -0.0029   0.0019   1.00    6.6
2025/10/15 12:52:02.000      6398.7267     -5239.2442       -54.7303   1  11   0.0031   0.0050   0.0094  -0.0017  -0.0025   0.0024   0.00    6.6
2025/10/15 12:52:03.000      6398.7259     -5239.2441       -54.7320   1  11   0.0040   0.0042   0.0094  -0.0012  -0.0023   0.0013   0.00    6.6
2025/10/15 12:52:04.000      6398.7263     -5239.2442       -54.7313   1  11   0.0035   0.0043   0.0095   0.0020  -0.0024   0.0024   0.00    6.7
2025/10/15 12:52:05.000      6398.7258     -5239.2459       -54.7278   1  11   0.0041   0.0043   0.0094   0.0009  -0.0022   0.0016   0.00    6.7
2025/10/15 12:52:06.000      6398.7258     -5239.2425       -54.7277   1  11   0.0037   0.0045   0.0095  -0.0015  -0.0019   0.0019   0.00    6.7
2025/10/15 12:52:07.000      6398.7264     -5239.2431       -54.7280   1  11   0.0036   0.0040   0.0095   0.0016  -0.0026   0.0017   0.00    6.7
2025/10/15 12:52:08.000      6398.7263     -5239.2441       -54.7293   1  11   0.0037   0.0043   0.0095   0.0017  -0.0018   0.0018   0.00    6.7
2025/10/15 12:52:09.000      6398.7252     -5239.2429       -54.7303   1  11   0.0034   0.0040   0.0094   0.0013  -0.0024   0.0021   0.00    6.7
2025/10/15 12:52:10.000      6398.7245     -5239.2430       -54.7326   1  11   0.0036   0.0037   0.0094   0.0019  -0.0025   0.0017   0.00    6.8
2025/10/15 12:52:11.000      6398.7244     -5239.2426       -54.7273   1  11   0.0030   0.0036   0.0095   0.0021  -0.0023   0.0022   0.00    6.8
2025/10/15 12:52:12.000      6398.7256     -5239.2434       -54.7281   1  11   0.0039   0.0042   0.0094   0.0020  -0.0024   0.0023   0.00    6.8
2025/10/15 12:52:13.000      6398.7247     -5239.2438       -54.7282   1  11   0.0029   0.0046   0.0094   0.0010  -0.0026   0.0026   0.00    6.8
2025/10/15 12:52:14.000      6398.7253     -5239.2430       -54.7280   1  11   0.0033   0.0040   0.0094   0.0014  -0.0023   0.0017   0.00    6.8
2025/10/15 12:52:15.000      6398.7251     -5239.2434       -54.7307   1  11   0.0027   0.0053   0.0094   0.0014  -0.0022   0.0023   0.00    6.8
2025/10/15 12:52:16.000      6398.7246     -5239.2426       -54.7276   1  11   0.0037   0.0039   0.0094  -0.0005  -0.0024   0.0017   0.00    6.9
2025/10/15 12:52:17.000      6398.7262     -5239.2433       -54.7318   1  11   0.0028   0.0042   0.0093   0.0014  -0.0027   0.0023   0.00    6.9
2025/10/15 12:52:18.000      6398.7265     -5239.2448       -54.7276   1  11   0.0032   0.0035   0.0094   0.0018  -0.0025   0.0016   0.00    6.9
2025/10/15 12:52:19.000      6398.7249     -5239.2452       -54.7266   1  11   0.0036   0.0043   0.0095  -0.0006  -0.0023   0.0015   0.00    6.9
2025/10/15 12:52:20.000      6398.7257     -5239.2434       -54.7265   1  11   0.0040   0.0043   0.0095   0.0009  -0.0027   0.0022   0.00    6.9
2025/10/15 12:52:21.000      6398.7250     -5239.2440       -54.7302   1  11   0.0033   0.0040   0.0094   0.0009  -0.0019   0.0016   0.00    7.0
2025/10/15 12:52:22.000      6398.7244     -5239.2453       -54.7297   1  11   0.0036   0.0048   0.0093   0.0016  -0.0023   0.0021   0.00    7.0
2025/10/15 12:52:23.000      6398.7258     -5239.2428       -54.7279   1  11   0.0027   0.0044   0.0095   0.0009  -0.0025   0.0024   0.00    7.0
2025/10/15 12:52:24.000      6398.7257     -5239.2458       -54.7255   1  11   0.0028   0.0042   0.0095   0.0021  -0.0020   0.0020   0.00    7.0
2025/10/15 12:52:25.000      6398.7252     -5239.2455       -54.7270   1  11   0.0042   0.0040   0.0095  -0.0006  -0.0022   0.0017   0.00    7.0
2025/10/15 12:52:26.000      6398.7253     -5239.2446       -54.7278   1  11   0.0029   0.0046   0.0093   0.0017  -0.0023   0.0018   0.00    7.1
2025/10/15 12:52:27.000      6398.7246     -5239.2464       -54.7261   1  11   0.0032   0.0036   0.0094   0.0021  -0.0022   0.0021   0.00    7.1
2025/10/15 12:52:28.000      6398.7259     -5239.2443       -54.7238   1  11   0.0039   0.0043   0.0095  -0.0003  -0.0019   0.0018   0.00    7.1
2025/10/15 12:52:29.000      6398.7256     -5239.2455       -54.7210   1  11   0.0036   0.0046   0.0094   0.0017  -0.0022   0.0024   0.00    7.1
2025/10/15 12:52:30.000      6398.7241     -5239.2445       -54.7279   1  11   0.0039   0.0036   0.0095   0.0013  -0.0024   0.0018   0.00    7.2
2025/10/15 12:52:31.000      6398.7239     -5239.2457       -54.7255   1  11   0.0028   0.0036   0.0094   0.0021  -0.0022   0.0020   0.00    7.2
2025/10/15 12:52:32.000      6398.7259     -5239.2443       -54.7311   1  11   0.0036   0.0032   0.0096   0.0016  -0.0026   0.0021   0.00    7.2
2025/10/15 12:52:33.000      6398.7256     -5239.2461       -54.7254   1  11   0.0035   0.0039   0.0094   0.0015  -0.0023   0.0024   0.00    7.2
2025/10/15 12:52:34.000      6398.7254     -5239.2453       -54.7266   1  11   0.0035   0.0045   0.0095   0.0008  -0.0025   0.0021   0.00    7.3
2025/10/15 12:52:35.000      6398.7260     -5239.2445       -54.7284   1  11   0.0034   0.0048   0.0094   0.0009  -0.0024   0.0022   0.00    7.3
2025/10/15 12:52:36.000      6398.7261     -5239.2455       -54.7261   1  11   0.0044   0.0046   0.0094  -0.0017  -0.0024   0.0012   0.00    7.3
2025/10/15 12:52:37.000      6398.7256     -5239.2460       -54.7266   1  11   0.0034   0.0050   0.0093   0.0007  -0.0024   0.0021   0.00    7.3
2025/10/15 12:52:38.000      6398.7237     -5239.2466       -54.7259   1  11   0.0034   0.0036   0.0095   0.0023  -0.0025   0.0019   0.00    7.3
2025/10/15 12:52:39.000      6398.7242     -5239.2459       -54.7271   1  11   0.0029   0.0045   0.0094   0.0010  -0.0024   0.0024   0.00    7.4
2025/10/15 12:52:40.000      6398.7248     -5239.2458       -54.7294   1  11   0.0042   0.0045   0.0094   0.0009  -0.0025   0.0022   0.00    7.4
2025/10/15 12:52:41.000      6398.7253     -5239.2474       -54.7256   1  11   0.0034   0.0047   0.0096   0.0010  -0.0021   0.0020   1.00    7.4
2025/10/15 12:52:42.000      6398.7245     -5239.2462       -54.7289   1  11   0.0029   0.0046   0.0094   0.0019  -0.0020   0.0022   0.00    7.4
2025/10/15 12:52:43.000      6398.7225     -5239.2457       -54.7295   1  11   0.0038   0.0043   0.0094  -0.0008  -0.0025   0.0018   0.00    7.5
2025/10/15 12:52:44.000      6398.7233     -5239.2457       -54.7281   1  11   0.0038   0.0038   0.0095  -0.0006  -0.0026   0.0018   0.00    7.5
2025/10/15 12:52:45.000      6398.7243     -5239.2476       -54.7267   1  11   0.0036   0.0040   0.0097   0.0012  -0.0023   0.0018   1.00    7.5
2025/10/15 12:52:46.000      6398.7242     -5239.2470       -54.7260   1  11   0.0037   0.0045   0.0096  -0.0014  -0.0024   0.0025   1.00    7.6
2025/10/15 12:52:47.000      6398.7254     -5239.2442       -54.7294   1  11   0.0029   0.0045   0.0095   0.0016  -0.0023   0.0020   0.00    7.6
2025/10/15 12:52:48.000      6398.7246     -5239.2449       -54.7246   1  11   0.0034   0.0041   0.0095  -0.0012  -0.0022   0.0018   0.00    7.6
2025/10/15 12:52:49.000      6398.7237     -5239.2452       -54.7279   1  11   0.0029   0.0044   0.0094   0.0009  -0.0020   0.0018   0.00    7.6
2025/10/15 12:52:50.000      6398.7237     -5239.2466       -54.7288   1  11   0.0032   0.0043   0.0095  -0.0009  -0.0021   0.0017   0.00    7.7
2025/10/15 12:52:51.000      6398.7240     -5239.2457       -54.7268   1  11   0.0031   0.0042   0.0095   0.0016  -0.0026   0.0023   0.00    7.7
2025/10/15 12:52:52.000      6398.7233     -5239.2444       -54.7283   1  11   0.0047   0.0049   0.0095  -0.0017  -0.0022   0.0008   0.00    7.7
2025/10/15 12:52:53.000      6398.7238     -5239.2449       -54.7251   1  11   0.0036   0.0032   0.0096   0.0024  -0.0026   0.0022   0.00    7.8
2025/10/15 12:52:54.000      6398.7244     -5239.2444       -54.7254   1  11   0.0023   0.0037   0.0094   0.0005  -0.0023   0.0020   0.00    7.8
2025/10/15 12:52:55.000      6398.7235     -5239.2453       -54.7270   1  11   0.0042   0.0048   0.0094  -0.0021  -0.0019   0.0018   0.00    7.8
2025/10/15 12:52:56.000      6398.7230     -5239.2443       -54.7254   1  11   0.0029   0.0035   0.0094   0.0020  -0.0025   0.0026   0.00    7.9
2025/10/15 12:52:57.000      6398.7234     -5239.2463       -54.7297   1  11   0.0034   0.0031   0.0095   0.0027  -0.0029   0.0022   0.00    7.9
2025/10/15 12:52:58.000      6398.7239     -5239.2437       -54.7289   1  11   0.0032   0.0041   0.0095   0.0018  -0.0021   0.0020   0.00    7.9
2025/10/15 12:52:59.000      6398.7227     -5239.2440       -54.7283   1  11   0.0026   0.0038   0.0094   0.0022  -0.0028   0.0027   0.00    8.0
2025/10/15 12:53:00.000      6398.7228     -5239.2437       -54.7302   1  11   0.0038   0.0034   0.0095   0.0024  -0.0025   0.0022   0.00    8.0
2025/10/15 12:53:01.000      6398.7230     -5239.2415       -54.7302   1  11   0.0027   0.0045   0.0094   0.0015  -0.0023   0.0023   0.00    8.0
2025/10/15 12:53:02.000      6398.7222     -5239.2433       -54.7285   1  11   0.0039   0.0047   0.0093   0.0015  -0.0023   0.0025   0.00    8.1
2025/10/15 12:53:03.000      6398.7232     -5239.2436       -54.7299   1  11   0.0036   0.0039   0.0095   0.0011  -0.0021   0.0020   0.00    8.1
2025/10/15 12:53:04.000      6398.7227     -5239.2445       -54.7305   1  11   0.0034   0.0042   0.0096   0.0025  -0.0022   0.0019   0.00    8.2
2025/10/15 12:53:05.000      6398.7234     -5239.2446       -54.7312   1  11   0.0036   0.0041   0.0095   0.0018  -0.0024   0.0021   0.00    8.2
2025/10/15 12:53:06.000      6398.7245     -5239.2429       -54.7312   1  11   0.0032   0.0039   0.0095   0.0012  -0.0017   0.0009   0.00    8.2
2025/10/15 12:53:07.000      6398.7241     -5239.2433       -54.7275   1  11   0.0027   0.0039   0.0094  -0.0004  -0.0022   0.0024   0.00    8.3
2025/10/15 12:53:08.000      6398.7244     -5239.2439       -54.7285   1  11   0.0028   0.0033   0.0095   0.0023  -0.0022   0.0024   0.00    8.3
2025/10/15 12:53:09.000      6398.7231     -5239.2427       -54.7322   1  11   0.0031   0.0037   0.0093   0.0019  -0.0026   0.0024   0.00    8.3
2025/10/15 12:53:10.000      6398.7239     -5239.2436       -54.7326   1  11   0.0032   0.0042   0.0095   0.0023  -0.0021   0.0022   0.00    8.4
2025/10/15 12:53:11.000      6398.7237     -5239.2444       -54.7361   1  11   0.0031   0.0042   0.0097   0.0011  -0.0022   0.0018   1.00    8.4
2025/10/15 12:53:12.000      6398.7234     -5239.2436       -54.7328   1  11   0.0044   0.0043   0.0095   0.0014  -0.0018   0.0014   0.00    8.4
2025/10/15 12:53:13.000      6398.7239     -5239.2423       -54.7330   1  11   0.0035   0.0048   0.0095   0.0017  -0.0015   0.0020   0.00    8.5
2025/10/15 12:53:14.000      6398.7224     -5239.2443       -54.7332   1  11   0.0034   0.0033   0.0096   0.0012  -0.0024   0.0019   0.00    8.5
2025/10/15 12:53:15.000      6398.7227     -5239.2436       -54.7314   1  11   0.0031   0.0044   0.0095   0.0021  -0.0026   0.0027   0.00    8.5
2025/10/15 12:53:16.000      6398.7224     -5239.2446       -54.7329   1  11   0.0041   0.0048   0.0095  -0.0022  -0.0016   0.0012   0.00    8.6
2025/10/15 12:53:17.000      6398.7221     -5239.2439       -54.7333   1  11   0.0034   0.0039   0.0094   0.0018  -0.0022   0.0021   0.00    8.6
2025/10/15 12:53:18.000      6398.7232     -5239.2447       -54.7320   1  11   0.0035   0.0039   0.0096   0.0028  -0.0027   0.0022   1.00    8.6
2025/10/15 12:53:19.000      6398.7241     -5239.2445       -54.7341   1  11   0.0040   0.0045   0.0096  -0.0016  -0.0015   0.0006   0.00    8.6
2025/10/15 12:53:20.000      6398.7235     -5239.2452       -54.7300   1  11   0.0035   0.0043   0.0094   0.0009  -0.0024   0.0018   0.00    8.7
2025/10/15 12:53:21.000      6398.7231     -5239.2456       -54.7295   1  11   0.0024   0.0031   0.0096   0.0024  -0.0024   0.0024   0.00    8.7
2025/10/15 12:53:22.000      6398.7234     -5239.2443       -54.7302   1  11   0.0034   0.0036   0.0096   0.0018  -0.0025   0.0014   0.00    8.7
2025/10/15 12:53:23.000      6398.7244     -5239.2440       -54.7293   1  11   0.0030   0.0045   0.0095   0.0020  -0.0020   0.0020   0.00    8.8
2025/10/15 12:53:24.000      6398.7247     -5239.2462       -54.7307   1  11   0.0032   0.0037   0.0096   0.0016  -0.0024   0.0017   0.00    8.8
2025/10/15 12:53:25.000      6398.7239     -5239.2443       -54.7324   1  11   0.0029   0.0048   0.0093   0.0011  -0.0023   0.0023   0.00    8.8
2025/10/15 12:53:26.000      6398.7245     -5239.2445       -54.7311   1  11   0.0029   0.0042   0.0093   0.0018  -0.0023   0.0023   0.00    8.8
2025/10/15 12:53:27.000      6398.7216     -5239.2461       -54.7274   1  11   0.0037   0.0047   0.0095   0.0019  -0.0022   0.0021   0.00    8.9
2025/10/15 12:53:28.000      6398.7228     -5239.2459       -54.7310   1  11   0.0036   0.0040   0.0094  -0.0012  -0.0020   0.0018   0.00    8.9
2025/10/15 12:53:29.000      6398.7235     -5239.2439       -54.7320   1  11   0.0039   0.0042   0.0095   0.0015  -0.0027   0.0016   0.00    8.9
2025/10/15 12:53:30.000      6398.7221     -5239.2439       -54.7350   1  11   0.0040   0.0053   0.0095  -0.0003  -0.0013   0.0019   0.00    8.9
2025/10/15 12:53:31.000      6398.7219     -5239.2449       -54.7369   1  11   0.0036   0.0029   0.0097   0.0021  -0.0025   0.0021   1.00    9.0
2025/10/15 12:53:32.000      6398.7218     -5239.2475       -54.7335   1  11   0.0038   0.0041   0.0094   0.0013  -0.0027   0.0022   0.00    9.0
2025/10/15 12:53:33.000      6398.7209     -5239.2452       -54.7327   1  11   0.0035   0.0048   0.0095  -0.0013  -0.0019   0.0019   0.00    9.0
2025/10/15 12:53:34.000      6398.7218     -5239.2472       -54.7320   1  11   0.0038   0.0045   0.0096  -0.0009  -0.0020   0.0019   0.00    9.0
2025/10/15 12:53:35.000      6398.7223     -5239.2450       -54.7340   1  11   0.0034   0.0046   0.0095  -0.0018  -0.0021   0.0016   0.00    9.1
2025/10/15 12:53:36.000      6398.7213     -5239.2458       -54.7297   1  11   0.0026   0.0041   0.0094   0.0026  -0.0025   0.0026   0.00    9.1
2025/10/15 12:53:37.000      6398.7213     -5239.2448       -54.7300   1  11   0.0028   0.0035   0.0095   0.0026  -0.0021   0.0020   0.00    9.1
2025/10/15 12:53:38.000      6398.7209     -5239.2448       -54.7311   1  11   0.0041   0.0043   0.0095   0.0021  -0.0024   0.0024   0.00    9.1
2025/10/15 12:53:39.000      6398.7223     -5239.2442       -54.7332   1  11   0.0038   0.0045   0.0096   0.0006  -0.0013   0.0017   0.00    9.2
2025/10/15 12:53:40.000      6398.7202     -5239.2471       -54.7306   1  11   0.0039   0.0045   0.0096   0.0010  -0.0017   0.0012   0.00    9.2
2025/10/15 12:53:41.000      6398.7229     -5239.2452       -54.7285   1  11   0.0042   0.0043   0.0094  -0.0005  -0.0021   0.0017   0.00    9.2
2025/10/15 12:53:42.000      6398.7216     -5239.2468       -54.7265   1  11   0.0030   0.0041   0.0096   0.0011  -0.0023   0.0018   0.00    9.2
2025/10/15 12:53:43.000      6398.7218     -5239.2463       -54.7321   1  11   0.0035   0.0054   0.0094   0.0007  -0.0026   0.0023   0.00    9.3
2025/10/15 12:53:44.000      6398.7208     -5239.2460       -54.7307   1  11   0.0038   0.0044   0.0094   0.0019  -0.0022   0.0023   0.00    9.3
2025/10/15 12:53:45.000      6398.7219     -5239.2459       -54.7292   1  11   0.0033   0.0040   0.0095  -0.0009  -0.0024   0.0022   0.00    9.3
2025/10/15 12:53:46.000      6398.7215     -5239.2454       -54.7299   1  11   0.0043   0.0056   0.0095  -0.0010  -0.0018   0.0021   0.00    9.3
2025/10/15 12:53:47.000      6398.7208     -5239.2459       -54.7299   1  11   0.0033   0.0043   0.0095   0.0024  -0.0021   0.0019   0.00    9.3
2025/10/15 12:53:48.000      6398.7212     -5239.2468       -54.7249   1  11   0.0035   0.0037   0.0095   0.0003  -0.0027   0.0020   0.00    9.4
2025/10/15 12:53:49.000      6398.7207     -5239.2459       -54.7323   1  11   0.0036   0.0049   0.0095   0.0017  -0.0019   0.0021   0.00    9.4
2025/10/15 12:53:50.000      6398.7205     -5239.2445       -54.7293   1  11   0.0029   0.0046   0.0094   0.0008  -0.0022   0.0023   0.00    9.4
2025/10/15 12:53:51.000      6398.7205     -5239.2457       -54.7290   1  11   0.0033   0.0047   0.0095  -0.0017  -0.0021   0.0019   0.00    9.4
2025/10/15 12:53:52.000      6398.7204     -5239.2457       -54.7295   1  11   0.0045   0.0042   0.0095   0.0017  -0.0024   0.0016   0.00    9.4
2025/10/15 12:53:53.000      6398.7184     -5239.2449       -54.7280   1  11   0.0040   0.0044   0.0094  -0.0007  -0.0022   0.0016   0.00    9.4
2025/10/15 12:53:54.000      6398.7194     -5239.2449       -54.7249   1  11   0.0033   0.0039   0.0094   0.0021  -0.0026   0.0024   0.00    9.5
2025/10/15 12:53:55.000      6398.7186     -5239.2478       -54.7289   1  11   0.0030   0.0042   0.0095   0.0016  -0.0017   0.0020   0.00    9.5
2025/10/15 12:53:56.000      6398.7200     -5239.2457       -54.7284   1  11   0.0035   0.0037   0.0094   0.0024  -0.0027   0.0023   0.00    9.5
2025/10/15 12:53:57.000      6398.7208     -5239.2458       -54.7288   1  11   0.0038   0.0034   0.0095   0.0015  -0.0025   0.0016   0.00    9.5
2025/10/15 12:53:58.000      6398.7200     -5239.2449       -54.7285   1  11   0.0036   0.0046   0.0096   0.0009  -0.0022   0.0018   0.00    9.5
2025/10/15 12:53:59.000      6398.7194     -5239.2445       -54.7306   1  11   0.0028   0.0035   0.0094   0.0026  -0.0028   0.0025   0.00    9.6
2025/10/15 12:54:00.000      6398.7184     -5239.2452       -54.7313   1  11   0.0038   0.0047   0.0095   0.0011  -0.0020   0.0016   0.00    9.6
2025/10/15 12:54:01.000      6398.7197     -5239.2455       -54.7276   1  11   0.0033   0.0043   0.0096  -0.0010  -0.0019   0.0017   0.00    9.6
2025/10/15 12:54:02.000      6398.7200     -5239.2461       -54.7278   1  11   0.0040   0.0047   0.0094   0.0007  -0.0018   0.0018   0.00    9.6
2025/10/15 12:54:03.000      6398.7195     -5239.2454       -54.7274   1  11   0.0030   0.0044   0.0096   0.0010  -0.0019   0.0017   0.00    9.7
2025/10/15 12:54:04.000      6398.7192     -5239.2448       -54.7281   1  11   0.0039   0.0050   0.0094  -0.0016  -0.0025   0.0019   0.00    9.7
2025/10/15 12:54:05.000      6398.7205     -5239.2462       -54.7276   1  11   0.0030   0.0039   0.0094   0.0011  -0.0023   0.0019   0.00    9.7
2025/10/15 12:54:06.000      6398.7203     -5239.2440       -54.7240   1  11   0.0032   0.0045   0.0095   0.0008  -0.0026   0.0022   0.00    9.8
2025/10/15 12:54:07.000      6398.7215     -5239.2450       -54.7319   1  11   0.0031   0.0042   0.0095   0.0027  -0.0021   0.0022   0.00    9.8
2025/10/15 12:54:08.000      6398.7204     -5239.2451       -54.7264   1  11   0.0034   0.0027   0.0097  -0.0010  -0.0025   0.0017   0.00    9.8
2025/10/15 12:54:09.000      6398.7212     -5239.2457       -54.7336   1  11   0.0039   0.0044   0.0094  -0.0014  -0.0022   0.0015   0.00    9.8
2025/10/15 12:54:10.000      6398.7201     -5239.2456       -54.7304   1  11   0.0040   0.0036   0.0094   0.0021  -0.0027   0.0021   0.00    9.9
2025/10/15 12:54:11.000      6398.7219     -5239.2467       -54.7289   1  11   0.0038   0.0048   0.0097   0.0008  -0.0022   0.0024   1.00    9.9
2025/10/15 12:54:12.000      6398.7206     -5239.2444       -54.7290   1  11   0.0031   0.0043   0.0096  -0.0002  -0.0021   0.0021   0.00    9.9
2025/10/15 12:54:13.000      6398.7211     -5239.2458       -54.7273   1  11   0.0027   0.0041   0.0095   0.0011  -0.0024   0.0021   0.00   10.0
2025/10/15 12:54:14.000      6398.7215     -5239.2456       -54.7283   1  11   0.0035   0.0046   0.0095   0.0010  -0.0022   0.0020   0.00   10.0
2025/10/15 12:54:15.000      6398.7214     -5239.2454       -54.7266   1  11   0.0041   0.0047   0.0096   0.0006  -0.0022   0.0017   0.00   10.0
2025/10/15 12:54:16.000      6398.7217     -5239.2450       -54.7272   1  11   0.0033   0.0042   0.0095   0.0021  -0.0025   0.0021   0.00   10.1
2025/10/15 12:54:17.000      6398.7212     -5239.2467       -54.7282   1  11   0.0030   0.0047   0.0095   0.0017  -0.0021   0.0022   0.00   10.1
2025/10/15 12:54:18.000      6398.7208     -5239.2451       -54.7274   1  11   0.0034   0.0036   0.0095   0.0021  -0.0027   0.0024   0.00   10.1
2025/10/15 12:54:19.000      6398.7214     -5239.2444       -54.7306   1  11   0.0028   0.0046   0.0094   0.0012  -0.0026   0.0023   0.00   10.2
2025/10/15 12:54:20.000      6398.7216     -5239.2436       -54.7301   1  11   0.0034   0.0048   0.0095   0.0013  -0.0026   0.0021   0.00   10.2
2025/10/15 12:54:21.000      6398.7218     -5239.2444       -54.7251   1  11   0.0032   0.0048   0.0095  -0.0015  -0.0015   0.0020   0.00   10.2
2025/10/15 12:54:22.000      6398.7215     -5239.2460       -54.7236   1  11   0.0033   0.0034   0.0094   0.0025  -0.0028   0.0026   0.00   10.3
2025/10/15 12:54:23.000      6398.7203     -5239.2461       -54.7281   1  11   0.0022   0.0047   0.0096   0.0012  -0.0020   0.0026   0.00   10.3
2025/10/15 12:54:24.000      6398.7213     -5239.2471       -54.7212   1  11   0.0038   0.0047   0.0096   0.0010  -0.0019   0.0018   0.00   10.4
2025/10/15 12:54:25.000      6398.7214     -5239.2453       -54.7241   1  11   0.0024   0.0032   0.0095   0.0025  -0.0026   0.0021   0.00   10.4
2025/10/15 12:54:26.000      6398.7221     -5239.2449       -54.7284   1  11   0.0033   0.0049   0.0096  -0.0005  -0.0023   0.0022   1.00   10.4
2025/10/15 12:54:27.000      6398.7217     -5239.2438       -54.7285   1  11   0.0039   0.0046   0.0094   0.0015  -0.0022   0.0020   0.00   10.5
2025/10/15 12:54:28.000      6398.7221     -5239.2450       -54.7248   1  11   0.0040   0.0037   0.0096   0.0016  -0.0021   0.0019   0.00   10.5
2025/10/15 12:54:29.000      6398.7215     -5239.2436       -54.7292   1  11   0.0035   0.0046   0.0094   0.0011  -0.0022   0.0025   0.00   10.6
2025/10/15 12:54:30.000      6398.7202     -5239.2451       -54.7264   1  11   0.0036   0.0041   0.0095   0.0013  -0.0023   0.0024   0.00   10.6
2025/10/15 12:54:31.000      6398.7199     -5239.2454       -54.7277   1  11   0.0038   0.0043   0.0096   0.0013  -0.0027   0.0020   0.00   10.6
2025/10/15 12:54:32.000      6398.7221     -5239.2449       -54.7249   1  11   0.0033   0.0047   0.0095  -0.0015  -0.0026   0.0020   0.00   10.7
2025/10/15 12:54:33.000      6398.7216     -5239.2459       -54.7264   1  11   0.0036   0.0045   0.0095  -0.0007  -0.0020   0.0020   0.00   10.7
2025/10/15 12:54:34.000      6398.7217     -5239.2443       -54.7253   1  11   0.0029   0.0038   0.0094   0.0018  -0.0028   0.0024   0.00   10.8
2025/10/15 12:54:35.000      6398.7218     -5239.2445       -54.7222   1  11   0.0023   0.0039   0.0094   0.0017  -0.0024   0.0024   0.00   10.8
2025/10/15 12:54:36.000      6398.7210     -5239.2459       -54.7236   1  11   0.0031   0.0034   0.0095   0.0020  -0.0025   0.0021   0.00   10.8
2025/10/15 12:54:37.000      6398.7213     -5239.2461       -54.7212   1  11   0.0038   0.0040   0.0095  -0.0017  -0.0027   0.0018   0.00   10.9
2025/10/15 12:54:38.000      6398.7222     -5239.2469       -54.7240   1  11   0.0036   0.0047   0.0095  -0.0013  -0.0017   0.0022   0.00   10.9
2025/10/15 12:54:39.000      6398.7218     -5239.2469       -54.7177   1  11   0.0034   0.0040   0.0095   0.0008  -0.0024   0.0019   0.00   11.0
2025/10/15 12:54:40.000      6398.7220     -5239.2463       -54.7213   1  11   0.0023   0.0034   0.0095   0.0026  -0.0027   0.0023   0.00   11.0
2025/10/15 12:54:41.000      6398.7219     -5239.2471       -54.7216   1  11   0.0020   0.0035   0.0095   0.0016  -0.0025   0.0023   0.00   11.1
2025/10/15 12:54:42.000      6398.7200     -5239.2522       -54.7105   1  10   0.0038   0.0041   0.0101  -0.0015  -0.0028   0.0008   0.00   11.1
2025/10/15 12:54:43.000      6398.7207     -5239.2499       -54.7118   1  10   0.0029   0.0046   0.0100   0.0016  -0.0029   0.0019   0.00   11.1
2025/10/15 12:54:44.000      6398.7214     -5239.2512       -54.7096   1  11   0.0039   0.0042   0.0101   0.0007  -0.0029   0.0014   0.00   11.2
2025/10/15 12:54:45.000      6398.7201     -5239.2514       -54.7141   1  11   0.0038   0.0049   0.0100  -0.0012  -0.0031   0.0015   0.00   11.2
2025/10/15 12:54:46.000      6398.7203     -5239.2491       -54.7146   1  11   0.0037   0.0045   0.0098   0.0015  -0.0025   0.0021   0.00   11.3
2025/10/15 12:54:47.000      6398.7202     -5239.2505       -54.7107   1  11   0.0035   0.0038   0.0098   0.0024  -0.0024   0.0018   0.00   11.3
2025/10/15 12:54:48.000      6398.7190     -5239.2496       -54.7089   1  11   0.0034   0.0041   0.0097   0.0004  -0.0028   0.0025   0.00   11.4
2025/10/15 12:54:49.000      6398.7209     -5239.2487       -54.7119   1  11   0.0035   0.0042   0.0096   0.0015  -0.0020   0.0021   0.00   11.4
2025/10/15 12:54:50.000      6398.7192     -5239.2506       -54.7082   1  11   0.0039   0.0046   0.0096  -0.0007  -0.0025   0.0023   0.00   11.5
2025/10/15 12:54:51.000      6398.7201     -5239.2490       -54.7088   1  11   0.0040   0.0045   0.0097  -0.0007  -0.0023   0.0014   0.00   11.5
2025/10/15 12:54:52.000      6398.7192     -5239.2500       -54.7103   1  11   0.0033   0.0038   0.0095   0.0027  -0.0028   0.0025   0.00   11.6
2025/10/15 12:54:53.000      6398.7193     -5239.2514       -54.7152   1  11   0.0036   0.0047   0.0095   0.0009  -0.0023   0.0022   0.00   11.6
2025/10/15 12:54:54.000      6398.7200     -5239.2518       -54.7106   1  10   0.0033   0.0045   0.0099   0.0020  -0.0030   0.0018   0.00   11.7
2025/10/15 12:54:55.000      6398.7194     -5239.2502       -54.7093   1  10   0.0035   0.0045   0.0099   0.0028  -0.0031   0.0018   0.00   11.7
2025/10/15 12:54:56.000      6398.7190     -5239.2491       -54.7092   1  11   0.0030   0.0042   0.0100   0.0019  -0.0030   0.0015   0.00   11.8
2025/10/15 12:54:57.000      6398.7202     -5239.2486       -54.7107   1  11   0.0025   0.0038   0.0100   0.0019  -0.0033   0.0018   0.00   11.9
2025/10/15 12:54:58.000      6398.7186     -5239.2513       -54.7126   1  11   0.0036   0.0040   0.0098  -0.0012  -0.0026   0.0015   0.00   11.9
2025/10/15 12:54:59.000      6398.7180     -5239.2494       -54.7110   1  11   0.0030   0.0041   0.0096   0.0019  -0.0029   0.0024   0.00   12.0
2025/10/15 12:55:00.000      6398.7193     -5239.2500       -54.7066   1  11   0.0029   0.0033   0.0096   0.0023  -0.0026   0.0022   0.00   12.0
2025/10/15 12:55:01.000      6398.7196     -5239.2481       -54.7115   1  11   0.0038   0.0037   0.0098   0.0021  -0.0026   0.0016   1.00   12.1
2025/10/15 12:55:02.000      6398.7197     -5239.2505       -54.7047   1  11   0.0032   0.0042   0.0096   0.0021  -0.0027   0.0022   0.00   12.1
2025/10/15 12:55:03.000      6398.7184     -5239.2503       -54.7076   1  10   0.0038   0.0049   0.0101   0.0006  -0.0029   0.0017   0.00   12.2
2025/10/15 12:55:04.000      6398.7202     -5239.2513       -54.7024   1  10   0.0022   0.0045   0.0100   0.0022  -0.0032   0.0020   0.00   12.2
2025/10/15 12:55:05.000      6398.7194     -5239.2493       -54.7075   1  10   0.0039   0.0039   0.0101   0.0025  -0.0026   0.0011   0.00   12.3
2025/10/15 12:55:06.000      6398.7198     -5239.2486       -54.7086   1  10   0.0036   0.0044   0.0100   0.0015  -0.0027   0.0016   0.00   12.3
2025/10/15 12:55:07.000      6398.7197     -5239.2498       -54.7063   1  11   0.0032   0.0047   0.0099   0.0008  -0.0028   0.0013   0.00   12.4
2025/10/15 12:55:08.000      6398.7198     -5239.2514       -54.7059   1  11   0.0036   0.0050   0.0100  -0.0019  -0.0028   0.0013   0.00   12.5
2025/10/15 12:55:09.000      6398.7198     -5239.2507       -54.7035   1  11   0.0034   0.0041   0.0098   0.0009  -0.0029   0.0018   0.00   12.5
2025/10/15 12:55:10.000      6398.7201     -5239.2496       -54.7039   1  11   0.0027   0.0033   0.0096   0.0023  -0.0031   0.0022   0.00   12.6
2025/10/15 12:55:11.000      6398.7189     -5239.2504       -54.7049   1  11   0.0036   0.0043   0.0096   0.0017  -0.0022   0.0019   0.00   12.6
2025/10/15 12:55:12.000      6398.7196     -5239.2503       -54.7004   1  11   0.0036   0.0044   0.0096   0.0017  -0.0023   0.0021   0.00   12.7
2025/10/15 12:55:13.000      6398.7204     -5239.2505       -54.7068   1  11   0.0035   0.0038   0.0096   0.0022  -0.0032   0.0023   0.00   12.7
2025/10/15 12:55:14.000      6398.7206     -5239.2501       -54.7040   1  11   0.0039   0.0041   0.0097   0.0018  -0.0027   0.0019   0.00   12.8
2025/10/15 12:55:15.000      6398.7197     -5239.2504       -54.7037   1  11   0.0029   0.0041   0.0095   0.0005  -0.0025   0.0021   0.00   12.8
2025/10/15 12:55:16.000      6398.7197     -5239.2521       -54.7049   1  11   0.0030   0.0038   0.0097   0.0019  -0.0021   0.0024   0.00   12.9
2025/10/15 12:55:17.000      6398.7187     -5239.2525       -54.7059   1  11   0.0035   0.0042   0.0096  -0.0009  -0.0025   0.0016   0.00   12.9
2025/10/15 12:55:18.000      6398.7189     -5239.2525       -54.7028   1  11   0.0032   0.0044   0.0096   0.0024  -0.0022   0.0020   0.00   13.0
2025/10/15 12:55:19.000      6398.7192     -5239.2520       -54.6972   1  11   0.0030   0.0036   0.0095   0.0018  -0.0027   0.0022   0.00   13.0
2025/10/15 12:55:20.000      6398.7197     -5239.2512       -54.7039   1  11   0.0029   0.0045   0.0097   0.0014  -0.0024   0.0027   0.00   13.1
2025/10/15 12:55:21.000      6398.7193     -5239.2513       -54.7055   1  11   0.0029   0.0035   0.0097   0.0022  -0.0027   0.0024   1.00   13.1
2025/10/15 12:55:22.000      6398.7171     -5239.2506       -54.7023   1  11   0.0027   0.0038   0.0095  -0.0003  -0.0023   0.0021   0.00   13.2
2025/10/15 12:55:23.000      6398.7188     -5239.2486       -54.7006   1  11   0.0033   0.0048   0.0095  -0.0008  -0.0022   0.0021   0.00   13.2
2025/10/15 12:55:24.000      6398.7182     -5239.2495       -54.6972   1  11   0.0025   0.0034   0.0095   0.0025  -0.0027   0.0026   0.00   13.3
2025/10/15 12:55:25.000      6398.7173     -5239.2497       -54.7014   1  11   0.0035   0.0029   0.0096   0.0013  -0.0026   0.0018   0.00   13.4
2025/10/15 12:55:26.000      6398.7173     -5239.2517       -54.6977   1  11   0.0035   0.0045   0.0097   0.0015  -0.0028   0.0022   1.00   13.4
2025/10/15 12:55:27.000      6398.7186     -5239.2500       -54.7020   1  11   0.0037   0.0045   0.0095   0.0008  -0.0023   0.0023   0.00   13.5
2025/10/15 12:55:28.000      6398.7197     -5239.2495       -54.6982   1  11   0.0040   0.0048   0.0096  -0.0014  -0.0018   0.0018   0.00   13.5
2025/10/15 12:55:29.000      6398.7183     -5239.2491       -54.7007   1  11   0.0037   0.0042   0.0096  -0.0015  -0.0024   0.0013   0.00   13.6
